~Version
 VERS              .         2.0                           : CWLS LOG ASCII STANDARD - VERSION 2.0
 WRAP              .         NO                            : ONE LINE PER DEPTH STEP
 DLM               .         SPACE                         : DELIMITING CHARACTER(SPACE TAB OR COMMA)
~Well Information
#_______________________________________________________________________________
#
#PARAMETER_NAME    .UNIT     VALUE                         : DESCRIPTION
#_______________________________________________________________________________
STRT               .m        0                             : First reference value
STOP               .m        5344                          : Last reference value
STEP               .m        0                             : Step increment
NULL               .         -9999                         : Missing value
COMP               .         OEL                           : Company
WELL               .         PLESHET 01                    : Well name
FLD                .                                       : Field
LOC                .                                       : Location
PROV               .                                       : Province
SRVC               .                                       : Service Company
DATE               .                                       : Date
UWI                .         339                           : Unique Well ID
API                .         5                             : API NUMBER
CNTY               .         ISRAEL                        : COUNTY
COUNTRY            .         ISRAEL                        : COUNTRY
Completion_date    .dd/mm/yyyy 10.07.1984                    : 
CTRY               .         Israel                        : 
EREF               .m        157.83                        : KB
GDAT               .                                       : Geodetic Datum
HZCS               .         EPSG_2039                     : 
LOC2               .                                       : LOCATION 2
LOC3               .                                       : LOCATION 3
LATI               .         110.1913888889                : LATITUDE
LONG               .         134.0763888889                : LONGITUDE
ORIGINALWELLNAME   .         PLESHET 1                     : 
SLAT               .         110.191389                    : Surface latitude
SLON               .         134.076389                    : surface longitude
SON                .                                       : SERVICE ORDER #
SPDA               .dd/mm/yyyy 22.09.1983                    : 
STAT               .                                       : STATE
WSTA               .         O-DH                          : Well_type
TVD                .         NO                            : TVD flag
TD                 .m        5344                          : 
Water_depth        .m                                      : 
X                  .m        170844                        : 
Y                  .m        600612                        : 
~Tops_Parameter
#_______________________________________________________________________________
#
#PARAMETER_NAME    .UNIT     VALUE                         : DESCRIPTION
#_______________________________________________________________________________
SET                .         DATA ROCK DISC                : 
TLFamily_MD        .         Measured Depth                : 
TLFamily_anhydrite .         Lithology (Mudlogs)           : 
TLFamily_coal      .         Lithology (Mudlogs)           : 
TLFamily_crystalline .         Lithology (Mudlogs)           : 
TLFamily_dolomite  .         Lithology (Mudlogs)           : 
TLFamily_gravel    .         Lithology (Mudlogs)           : 
TLFamily_limestone .         Lithology (Mudlogs)           : 
TLFamily_salt      .         Lithology (Mudlogs)           : 
TLFamily_sandstone .         Lithology (Mudlogs)           : 
TLFamily_shale     .         Lithology (Mudlogs)           : 
group              .         MUDLOG                        : 
~Curve Information
#_______________________________________________________________________________
#
#LOGNAME           .UNIT     LOG_ID                        : DESCRIPTION
#_______________________________________________________________________________
MD                 .m                                      :  
anhydrite          .v/v                                    : Description 
coal               .v/v                                    : Description 
crystalline        .v/v                                    : Description 
dolomite           .v/v                                    : Description 
gravel             .v/v                                    : Description 
limestone          .v/v                                    : Description 
salt               .v/v                                    : Description 
sandstone          .v/v                                    : Description 
shale              .v/v                                    : Description 
~Ascii
# ...
3015       0          0          0          0          0          0.7        0          0.15       0.15      
3046       0          0          0          1          0          0          0          0          0         
3076       0          0          0          0          0          0.85       0          0.15       0         
3082       0          0          0          0          0          0          0          0          1         
3082.5     0          0          0          0          0          0.85       0          0.15       0         
3086       0          0          0          0          0          0          0          0          1         
3087       0          0          0          0          0          0.85       0          0          0.15      
3100       0          0          0          0          0          0          0          0          1         
3101       0          0          0          0          0          0.85       0          0          0.15      
3117       0          0          0          0          0          0.55       0          0.075      0.375     
3119.5     0          0          0          0          0          0          0          0          1         
3120       0          0          0          0          0          0.55       0          0.075      0.375     
3125       0          0          0          0          0          0.55       0          0.225      0.225     
3129       0          0          0          0          0          0.7        0          0.075      0.225     
3142       0          0          0          0          0          0.275      0          0.225      0.5       
3152       0          0.15       0          0          0          0.55       0          0.075      0.225     
3154.5     0          0          0          0          0          0          0          0          1         
3155       0          0.15       0          0          0          0.55       0          0.075      0.225     
3157       0          0          0          0          0          0.7        0          0.075      0.225     
3162       0          0          0          0          0          1          0          0          0         
3174       0          0          0          0          0          1          0          0          0         
3192       0          0          0          0          0          0.85       0          0          0.15      
3199       0          0.15       0          0.15       0          0          0          0.3        0.4       
3206       0          0          0          0          0          0.85       0          0          0.15      
3214.5     0          0          0          0          0          0.15       0          0          0.85      
3216       0          0          0          0          0          0.7        0          0          0.3       
3219       0          0          0          0          0          0          0          0          1         
3219.5     0          0          0          0          0          0.85       0          0          0.15      
3226       0          0          0          0          0          1          0          0          0         
3232       0          0          0          0          0          0.85       0          0          0.15      
3236       0          0          0          0.15       0          0          0          0          0.85      
3239       0          0          0          0          0          0.7        0          0          0.3       
3247       0          0          0          0.15       0          0          0          0          0.85      
3251       0          0          0          0          0          0.85       0          0          0.15      
3253       0          0          0          0          0          0.35       0          0.075      0.575     
3258       0          0          0          0          0          1          0          0          0         
3260       0          0          0          0          0          0          0          0          1         
3260.5     0          0          0          0          0          0.85       0          0          0.15      
3263       0          0          0          0          0          0.85       0          0          0.15      
3283       0          0          0          0          0          0.85       0          0          0.15      
3289       0          0          0          0          0          0          0          0          1         
3291.5     0          0          0          0          0          0.7        0          0          0.3       
3295       0          0          0          0          0          0.7        0          0          0.3       
3301       0          0          0          0          0          0          0          0          1         
3302       0          0          0          0          0          0.85       0          0          0.15      
3316       0          0          0          0          0          0          0          0          1         
3318       0          0          0          0.15       0          0.7        0          0          0.15      
3325       0          0          0          0.15       0          0.15       0          0.7        0         
3327       0          0          0          0.15       0          0.55       0          0.225      0.075     
3337       0.15       0          0          0.85       0          0          0          0          0         
3347       0          0          0          0.15       0          0.85       0          0          0         
3385       0          0          0          0          0          0.85       0          0.075      0.075     
3402       0          0          0          0          0          0          0          0          1         
3403       0          0          0          0          0          0.55       0          0          0.45      
3410       0          0          0          0.15       0          0          0          0          0.85      
3411       0          0          0          0          0          0.7        0          0          0.3       
3414       0          0          0          0.15       0          0          0          0          0.85      
3415       0          0          0          0          0          0.85       0          0          0.15      
3416       0          0          0          0.15       0          0          0          0          0.85      
3417       0          0          0          0          0          0.7        0          0          0.3       
3419       0          0          0          0.15       0          0          0          0          0.85      
3420       0          0          0          0          0          0.7        0          0          0.3       
3422       0          0          0          0          0          0.85       0          0          0.15      
3430       0          0          0          0          0          0          0          0          1         
3431       0          0          0          0          0          0.85       0          0          0.15      
3444       0          0          0          0          0          0          0          0          1         
3445       0          0          0          0          0          0.85       0          0          0.15      
3462       0          0          0          0          0          0.7        0          0          0.3       
3466       0          0          0          0          0          0.85       0          0          0.15      
3470       0          0          0          0          0          0.7        0          0          0.3       
3483       0          0          0          0.15       0          0.7        0          0.15       0         
3501       0          0          0          0          0          0.85       0          0          0.15      
3511       0          0          0          0          0          0.85       0          0          0.15      
