~Version
 VERS              .         2.0                           : CWLS LOG ASCII STANDARD - VERSION 2.0
 WRAP              .         NO                            : ONE LINE PER DEPTH STEP
 DLM               .         SPACE                         : DELIMITING CHARACTER(SPACE TAB OR COMMA)
~Well Information
#_______________________________________________________________________________
#
#PARAMETER_NAME    .UNIT     VALUE                         : DESCRIPTION
#_______________________________________________________________________________
STRT               .m        0                             : First reference value
STOP               .m        5344                          : Last reference value
STEP               .m        0                             : Step increment
NULL               .         -9999                         : Missing value
COMP               .         OEL                           : Company
WELL               .         PLESHET 01                    : Well name
FLD                .                                       : Field
LOC                .                                       : Location
PROV               .                                       : Province
SRVC               .                                       : Service Company
DATE               .                                       : Date
UWI                .         339                           : Unique Well ID
API                .         5                             : API NUMBER
CNTY               .         ISRAEL                        : COUNTY
COUNTRY            .         ISRAEL                        : COUNTRY
Completion_date    .dd/mm/yyyy 10.07.1984                    : 
CTRY               .         Israel                        : 
EREF               .m        157.83                        : KB
GDAT               .                                       : Geodetic Datum
HZCS               .         EPSG_2039                     : 
LOC2               .                                       : LOCATION 2
LOC3               .                                       : LOCATION 3
LATI               .         110.1913888889                : LATITUDE
LONG               .         134.0763888889                : LONGITUDE
ORIGINALWELLNAME   .         PLESHET 1                     : 
SLAT               .         110.191389                    : Surface latitude
SLON               .         134.076389                    : surface longitude
SON                .                                       : SERVICE ORDER #
SPDA               .dd/mm/yyyy 22.09.1983                    : 
STAT               .                                       : STATE
WSTA               .         O-DH                          : Well_type
TVD                .         NO                            : TVD flag
TD                 .m        5344                          : 
Water_depth        .m                                      : 
X                  .m        170844                        : 
Y                  .m        600612                        : 
~Tops_Parameter
#_______________________________________________________________________________
#
#PARAMETER_NAME    .UNIT     VALUE                         : DESCRIPTION
#_______________________________________________________________________________
SET                .         DATA ROCK DISC                : 
TLFamily_MD        .         Measured Depth                : 
TLFamily_anhydrite .         Lithology (Mudlogs)           : 
TLFamily_coal      .         Lithology (Mudlogs)           : 
TLFamily_crystalline .         Lithology (Mudlogs)           : 
TLFamily_dolomite  .         Lithology (Mudlogs)           : 
TLFamily_gravel    .         Lithology (Mudlogs)           : 
TLFamily_limestone .         Lithology (Mudlogs)           : 
TLFamily_salt      .         Lithology (Mudlogs)           : 
TLFamily_sandstone .         Lithology (Mudlogs)           : 
TLFamily_shale     .         Lithology (Mudlogs)           : 
group              .         MUDLOG                        : 
~Curve Information
#_______________________________________________________________________________
#
#LOGNAME           .UNIT     LOG_ID                        : DESCRIPTION
#_______________________________________________________________________________
MD                 .m                                      :  
anhydrite          .v/v                                    : Description 
coal               .v/v                                    : Description 
crystalline        .v/v                                    : Description 
dolomite           .v/v                                    : Description 
gravel             .v/v                                    : Description 
limestone          .v/v                                    : Description 
salt               .v/v                                    : Description 
sandstone          .v/v                                    : Description 
shale              .v/v                                    : Description 
~Ascii
# ...
3985.5     0          0          0          0.15       0          0.7        0          0          0.15      
3992       0          0          0          0          0          0.15       0          0          0.85      
3993       0          0          0          0.15       0          0.7        0          0          0.15      
4000       0.15       0          0          0.7        0          0          0          0          0.15      
4006       0          0          0          0.15       0          0.15       0          0          0.7       
4007       0.15       0          0          0.7        0          0          0          0          0.15      
4013       0.15       0          0          0.7        0          0          0          0          0.15      
4018       0          0          0          0.15       0          0          0          0          0.85      
4018.5     0          0          0          0.85       0          0          0          0          0.15      
4019.5     0          0          0          0.15       0          0.15       0          0          0.7       
4020       0.15       0          0          0.7        0          0          0          0          0.15      
4023       0          0          0          0.15       0          0.15       0          0          0.7       
4023.5     0.15       0          0          0.7        0          0          0          0          0.15      
4027       0          0          0          0.85       0          0          0          0          0.15      
4030       0          0          0          0          0          0.85       0          0          0.15      
4032.5     0          0          0          0          0          0          0          0          1         
4033       0          0          0          1          0          0          0          0          0         
4036       0          0          0          0          0          0          0          0          1         
4037       0          0          0          1          0          0          0          0          0         
4039       0          0          0          0          0          0.7        0          0          0.3       
4041       0          0          0          1          0          0          0          0          0         
4046       0          0          0          0.15       0          0.85       0          0          0         
4063       0          0          0          0.7        0          0.15       0          0          0.15      
4074       0          0          0          0          0          0          0          0          1         
4076       0          0          0          0.7        0          0.15       0          0          0.15      
4078       0          0          0          0          0          0          0          0          1         
4078.5     0          0          0          0.7        0          0.15       0          0          0.15      
4090       0          0          0          0          0          0          0          0          1         
4091       0.15       0          0          0.7        0          0.15       0          0          0         
4098       0          0          0          0.7        0          0.15       0          0          0.15      
4115       0.15       0          0          0.55       0.15       0.15       0          0          0         
4132       0.15       0          0          0.3        0.55       0          0          0          0         
4152       0          0          0          0          0          0          0          0          1         
4154       0          0          0          0.15       0.15       0.55       0          0          0.15      
4163       0          0          0          0          0          0          0          0          1         
4164       0.15       0          0.15       0.7        0          0          0          0          0         
4166       0          0          0          0          0          0          0          0          1         
4167       0.15       0          0          0.7        0          0          0          0          0.15      
4178       0          0          0          0          0          0          0          0          1         
4179       0          0          0.15       0.85       0          0          0          0          0         
4185       0          0          0          0          0          0.45       0          0          0.55      
4186.5     0          0          0          1          0          0          0          0          0         
4187       0          0          0          0          0          0.45       0          0          0.55      
4189       0          0          0          0          0          0.6        0          0.15       0.25      
4196       0          0          0          1          0          0          0          0          0         
4199.5     0          0          0          0          0          0          0          0          1         
4200       0          0          0          1          0          0          0          0          0         
4200.5     0          0          0          0          0          0          0          0          1         
4201       0          0          0          0.55       0          0          0          0          0.45      
4205       0          0          0          0          0          0          0          0          1         
4206       0          0          0          0.7        0          0          0          0          0.3       
4214       0          0          0          0          0          0          0          0          1         
4215       0          0          0          0.7        0          0          0          0          0.3       
4222       0          0          0          0          0          0          0          0          1         
4223       0          0          0          0.7        0          0          0          0          0.3       
4229       0          0          0          0          0          0          0          0          1         
4230       0          0          0          0.7        0          0          0          0          0.3       
4233       0          0          0          0          0          0          0          0          1         
4234       0          0          0          0.7        0          0          0          0          0.3       
4238       0          0          0          0          0          0          0          0          1         
4239       0          0          0          0.7        0          0          0          0          0.3       
4241       0          0          0          0.55       0          0.3        0          0          0.15      
4249       0          0          0          0          0          0          0          0          1         
4250       0          0          0          0.7        0          0          0          0          0.3       
4252       0          0          0          0          0          0          0          0          1         
4253       0          0          0          0.7        0          0          0          0          0.3       
4254.5     0          0          0          0          0          0          0          0          1         
4255       0          0          0          0.7        0          0          0          0          0.3       
4265       0          0          0          0          0          0          0          0          1         
4267       0          0          0          1          0          0          0          0          0         
4268       0          0          0          0          0          0          0          0          1         
4269       0          0          0          0.7        0          0          0          0          0.3       
4271       0          0          0          0          0          0          0          0          1         
