~Version
 VERS              .         2.0                           : CWLS LOG ASCII STANDARD - VERSION 2.0
 WRAP              .         NO                            : ONE LINE PER DEPTH STEP
 DLM               .         SPACE                         : DELIMITING CHARACTER(SPACE TAB OR COMMA)
~Well Information
#_______________________________________________________________________________
#
#PARAMETER_NAME    .UNIT     VALUE                         : DESCRIPTION
#_______________________________________________________________________________
STRT               .m        0                             : First reference value
STOP               .m        5344                          : Last reference value
STEP               .m        0                             : Step increment
NULL               .         -9999                         : Missing value
COMP               .         OEL                           : Company
WELL               .         PLESHET 01                    : Well name
FLD                .                                       : Field
LOC                .                                       : Location
PROV               .                                       : Province
SRVC               .                                       : Service Company
DATE               .                                       : Date
UWI                .         339                           : Unique Well ID
API                .         5                             : API NUMBER
CNTY               .         ISRAEL                        : COUNTY
COUNTRY            .         ISRAEL                        : COUNTRY
Completion_date    .dd/mm/yyyy 10.07.1984                    : 
CTRY               .         Israel                        : 
EREF               .m        157.83                        : KB
GDAT               .                                       : Geodetic Datum
HZCS               .         EPSG_2039                     : 
LOC2               .                                       : LOCATION 2
LOC3               .                                       : LOCATION 3
LATI               .         110.1913888889                : LATITUDE
LONG               .         134.0763888889                : LONGITUDE
ORIGINALWELLNAME   .         PLESHET 1                     : 
SLAT               .         110.191389                    : Surface latitude
SLON               .         134.076389                    : surface longitude
SON                .                                       : SERVICE ORDER #
SPDA               .dd/mm/yyyy 22.09.1983                    : 
STAT               .                                       : STATE
WSTA               .         O-DH                          : Well_type
TVD                .         NO                            : TVD flag
TD                 .m        5344                          : 
Water_depth        .m                                      : 
X                  .m        170844                        : 
Y                  .m        600612                        : 
~Tops_Parameter
#_______________________________________________________________________________
#
#PARAMETER_NAME    .UNIT     VALUE                         : DESCRIPTION
#_______________________________________________________________________________
SET                .         DATA ROCK DISC                : 
TLFamily_MD        .         Measured Depth                : 
TLFamily_anhydrite .         Lithology (Mudlogs)           : 
TLFamily_coal      .         Lithology (Mudlogs)           : 
TLFamily_crystalline .         Lithology (Mudlogs)           : 
TLFamily_dolomite  .         Lithology (Mudlogs)           : 
TLFamily_gravel    .         Lithology (Mudlogs)           : 
TLFamily_limestone .         Lithology (Mudlogs)           : 
TLFamily_salt      .         Lithology (Mudlogs)           : 
TLFamily_sandstone .         Lithology (Mudlogs)           : 
TLFamily_shale     .         Lithology (Mudlogs)           : 
group              .         MUDLOG                        : 
~Curve Information
#_______________________________________________________________________________
#
#LOGNAME           .UNIT     LOG_ID                        : DESCRIPTION
#_______________________________________________________________________________
MD                 .m                                      :  
anhydrite          .v/v                                    : Description 
coal               .v/v                                    : Description 
crystalline        .v/v                                    : Description 
dolomite           .v/v                                    : Description 
gravel             .v/v                                    : Description 
limestone          .v/v                                    : Description 
salt               .v/v                                    : Description 
sandstone          .v/v                                    : Description 
shale              .v/v                                    : Description 
~Ascii
# ...
2425       0          0          0          0.15       0          0.7        0          0          0.15      
2430       0          0          0          0          0          0.15       0          0          0.85      
2435       0          0          0          0.15       0          0.55       0          0          0.3       
2442       0          0          0          0          0          0.15       0          0          0.85      
2444       0          0          0          0.15       0          0.55       0          0          0.3       
2447       0          0          0          0          0          1          0          0          0         
2449       0          0          0          0          0          0.85       0          0          0.15      
2467       0          0          0          0          0          1          0          0          0         
2476       0          0          0          0          0          0.85       0          0          0.15      
2485       0          0          0          0          0          0          0          0          1         
2486       0          0          0          0          0          0.85       0          0          0.15      
2488       0          0          0          0          0          0          0          0          1         
2490       0          0          0          0          0          0.85       0          0          0.15      
2531       0          0.15       0          0          0          0.275      0          0.15       0.425     
2548       0          0          0          0.15       0          0.85       0          0          0         
2552       0          0          0          0          0          0.15       0          0          0.85      
2554       0          0          0          0          0          0.85       0          0          0.15      
2556       0          0          0          0          0          0.15       0          0          0.85      
2559       0          0          0          0          0          0.85       0          0          0.15      
2561       0          0          0          0          0          0.15       0          0          0.85      
2564       0          0          0          0.15       0          0.7        0          0          0.15      
2571       0          0          0          0.15       0          0.7        0          0          0.15      
2608       0          0          0          0          0          1          0          0          0         
2646       0          0          0          0.15       0          0.85       0          0          0         
2675       0          0          0.15       0.85       0          0          0          0          0         
2682       0          0          0          0.15       0          0.85       0          0          0         
2700       0.15       0          0          0.85       0          0          0          0          0         
2702       0          0          0          0          0          1          0          0          0         
2705       0.15       0          0          0.85       0          0          0          0          0         
2708       0          0          0          0          0          1          0          0          0         
2719       0          0          0          0          0          0.55       0          0          0.45      
2732       0          0          0          0          0          1          0          0          0         
2740       0          0          0          0          0          0.7        0          0.075      0.225     
2746       0          0          0          0          0          0          0          0          1         
2747       0          0          0          0          0          0.55       0          0.45       0         
2749       0          0          0          0          0          0.45       0          0.55       0         
2750       0          0          0          0          0          0.15       0          0.85       0         
2751       0          0          0          0          0          0          0          0.15       0.85      
2753       0          0          0          0          0          0.55       0          0.45       0         
2754       0          0          0          0          0          0.75       0          0.25       0         
2756.5     0          0          0          0          0          0.25       0          0.45       0.3       
2758.5     0          0          0          0          0          0          0          0.15       0.85      
2760       0          0          0          0.15       0          0.7        0          0.15       0         
2767       0          0          0          0          0          1          0          0          0         
2773.5     0          0          0          0.15       0          0          0          0.7        0.15      
2775       0          0          0          0          0          0.15       0          0          0.85      
2776       0          0          0          0.15       0          0          0          0.7        0.15      
2778       0          0          0          0          0          0.15       0          0          0.85      
2780       0          0          0          0.3        0          0          0          0.55       0.15      
2783.5     0          0          0          0          0          0.15       0          0          0.85      
2785       0          0          0          0.15       0          0.85       0          0          0         
2792       0          0          0          0          0          0.85       0          0          0.15      
2795       0          0          0          0          0          0          0          0          1         
2795.5     0          0          0          0          0          0.85       0          0          0.15      
2797       0          0          0          0          0          0.85       0          0          0.15      
2818       0          0          0          0          0          0          0          0          1         
2820       0          0          0          0          0          0.85       0          0.15       0         
2831       0          0          0          0          0          0          0          0          1         
2833       0          0          0          0          0          0.7        0          0.15       0.15      
2841       0          0          0          0          0          0          0          0          1         
2843       0          0          0          0          0          0.85       0          0.15       0         
2848       0          0          0          0          0          0          0          0          1         
2849       0          0          0          0.15       0          0.85       0          0          0         
2855       0          0          0          0          0          0.85       0          0          0.15      
2861       0          0          0          0          0          0.85       0          0.075      0.075     
2870       0          0          0          0          0          0.85       0          0          0.15      
2885       0          0          0          0          0          0.7        0          0          0.3       
2910       0          0          0          0          0          0.85       0          0          0.15      
2920       0          0          0          0          0          0.7        0          0.15       0.15      
2960       0          0          0          0          0          0.7        0          0.15       0.15      
2975       0          0          0          0          0          0.85       0          0          0.15      
2993       0          0          0          0          0          0          0          0          1         
2995       0          0          0          0          0          0.85       0          0          0.15      
