~Version
 VERS              .         2.0                           : CWLS LOG ASCII STANDARD - VERSION 2.0
 WRAP              .         NO                            : ONE LINE PER DEPTH STEP
 DLM               .         SPACE                         : DELIMITING CHARACTER(SPACE TAB OR COMMA)
~Well Information
#_______________________________________________________________________________
#
#PARAMETER_NAME    .UNIT     VALUE                         : DESCRIPTION
#_______________________________________________________________________________
STRT               .m        0                             : First reference value
STOP               .m        5344                          : Last reference value
STEP               .m        0                             : Step increment
NULL               .         -9999                         : Missing value
COMP               .         OEL                           : Company
WELL               .         PLESHET 01                    : Well name
FLD                .                                       : Field
LOC                .                                       : Location
PROV               .                                       : Province
SRVC               .                                       : Service Company
DATE               .                                       : Date
UWI                .         339                           : Unique Well ID
API                .         5                             : API NUMBER
CNTY               .         ISRAEL                        : COUNTY
COUNTRY            .         ISRAEL                        : COUNTRY
Completion_date    .dd/mm/yyyy 10.07.1984                    : 
CTRY               .         Israel                        : 
EREF               .m        157.83                        : KB
GDAT               .                                       : Geodetic Datum
HZCS               .         EPSG_2039                     : 
LOC2               .                                       : LOCATION 2
LOC3               .                                       : LOCATION 3
LATI               .         110.1913888889                : LATITUDE
LONG               .         134.0763888889                : LONGITUDE
ORIGINALWELLNAME   .         PLESHET 1                     : 
SLAT               .         110.191389                    : Surface latitude
SLON               .         134.076389                    : surface longitude
SON                .                                       : SERVICE ORDER #
SPDA               .dd/mm/yyyy 22.09.1983                    : 
STAT               .                                       : STATE
WSTA               .         O-DH                          : Well_type
TVD                .         NO                            : TVD flag
TD                 .m        5344                          : 
Water_depth        .m                                      : 
X                  .m        170844                        : 
Y                  .m        600612                        : 
~Tops_Parameter
#_______________________________________________________________________________
#
#PARAMETER_NAME    .UNIT     VALUE                         : DESCRIPTION
#_______________________________________________________________________________
SET                .         DATA ROCK DISC                : 
TLFamily_MD        .         Measured Depth                : 
TLFamily_anhydrite .         Lithology (Mudlogs)           : 
TLFamily_coal      .         Lithology (Mudlogs)           : 
TLFamily_crystalline .         Lithology (Mudlogs)           : 
TLFamily_dolomite  .         Lithology (Mudlogs)           : 
TLFamily_gravel    .         Lithology (Mudlogs)           : 
TLFamily_limestone .         Lithology (Mudlogs)           : 
TLFamily_salt      .         Lithology (Mudlogs)           : 
TLFamily_sandstone .         Lithology (Mudlogs)           : 
TLFamily_shale     .         Lithology (Mudlogs)           : 
group              .         MUDLOG                        : 
~Curve Information
#_______________________________________________________________________________
#
#LOGNAME           .UNIT     LOG_ID                        : DESCRIPTION
#_______________________________________________________________________________
MD                 .m                                      :  
anhydrite          .v/v                                    : Description 
coal               .v/v                                    : Description 
crystalline        .v/v                                    : Description 
dolomite           .v/v                                    : Description 
gravel             .v/v                                    : Description 
limestone          .v/v                                    : Description 
salt               .v/v                                    : Description 
sandstone          .v/v                                    : Description 
shale              .v/v                                    : Description 
~Ascii
# ...
4685.5     0          0          0          0          0          0          0          0.225      0.775     
4688       0          0          0          0.3        0          0          0          0.2        0.5       
4689       0          0          0          0          0          0          0          0          1         
4692       0          0          0          0.15       0          0.55       0          0.075      0.225     
4695       0          0          0          0.15       0          0.55       0          0.075      0.225     
4701       0          0          0          0          0          0          0          0          1         
4704       0          0          0          0.15       0          0.55       0          0          0.3       
4715       0          0          0          0.55       0          0.3        0          0          0.15      
4716       0          0          0          0.15       0          0.55       0          0.075      0.225     
4722       0          0          0          0.85       0          0.15       0          0          0         
4725       0          0          0          0.15       0          0.7        0          0          0.15      
4729       0          0          0          0.85       0          0.15       0          0          0         
4732       0          0          0          0.15       0          0.55       0          0.075      0.225     
4745       0          0          0          0          0          0          0          0          1         
4746       0          0          0          0.15       0          0.7        0          0.075      0.075     
4749       0          0          0          0.3        0          0          0          0.35       0.35      
4749.5     0          0          0          0.15       0          0.55       0          0.075      0.225     
4752       0          0          0          0.3        0          0          0          0.35       0.35      
4752.5     0          0          0          0.15       0          0.55       0          0          0.3       
4754.5     0          0          0          0          0          0          0          0          1         
4755.5     0          0          0          0.3        0          0          0          0.35       0.35      
4756       0          0          0          0          0          0          0          0          1         
4757       0          0          0          0.15       0          0.55       0          0          0.3       
4770       0          0          0          0          0          0          0          0          1         
4770.5     0          0          0          0.15       0          0.55       0          0.075      0.225     
4775       0          0          0          0          0          0          0          0.075      0.925     
4787       0          0          0          0.3        0          0          0          0.35       0.35      
4787.5     0          0          0          0          0          0          0          0.075      0.925     
4789.5     0          0          0          0.3        0          0          0          0.35       0.35      
4790       0          0          0          0.3        0          0.55       0          0          0.15      
4793       0          0          0          0          0          0          0          0          1         
4793.5     0          0          0          0.3        0          0.4        0          0.075      0.225     
4796       0          0          0          0          0          0          0          0          1         
4796.5     0          0          0          0.3        0          0.4        0          0.075      0.225     
4803       0          0          0          0.15       0          0          0          0.35       0.5       
4804       0          0          0          0.15       0          0          0          0.075      0.775     
4806       0          0          0          0.15       0          0.85       0          0          0         
4807       0          0          0          0.3        0          0          0          0.2        0.5       
4809       0          0          0          0.15       0          0.7        0          0.075      0.075     
4810       0          0          0          0.15       0          0          0          0.075      0.775     
4812       0          0          0          0.15       0          0          0          0.425      0.425     
4812.5     0          0          0          0.15       0          0          0          0.075      0.775     
4814       0          0          0          0.15       0          0.85       0          0          0         
4814.5     0          0          0          0.15       0          0          0          0.075      0.775     
4817       0          0          0          0.3        0          0          0          0.2        0.5       
4819.5     0          0          0          0          0          0          0          0.075      0.925     
4821       0          0          0          0.15       0          0          0          0.425      0.425     
4821.5     0          0          0          0          0          0          0          0.075      0.925     
4824       0          0          0          0.15       0          0          0          0.35       0.5       
4825       0          0          0          0          0          0          0          0          1         
4826       0          0          0          0.15       0          0.7        0          0.075      0.075     
4827       0          0          0          0          0          0          0          0.5        0.5       
4827.5     0          0          0          0          0          0          0          0.075      0.925     
4829.5     0          0          0          0.15       0          0          0          0.425      0.425     
4830       0          0          0          0          0          0          0          0.075      0.925     
4834       0          0          0          0          0          0.85       0          0.075      0.075     
4834.5     0          0          0          0          0          0          0          0.075      0.925     
4836       0          0          0          0          0          1          0          0          0         
4837       0          0          0          0          0          0          0          0          1         
4838       0          0          0          0.15       0          0.85       0          0          0         
4840       0          0          0          0          0          0          0          0          1         
4842       0          0          0          0.3        0          0          0          0.2        0.5       
4843.5     0          0          0          0          0          0          0          0          1         
4844       0          0          0          0.3        0          0          0          0.2        0.5       
4845       0          0          0          0.15       0          0          0          0.075      0.775     
4848       0          0          0          0.15       0          0.7        0          0.075      0.075     
4850       0          0          0          0          0          0          0          0.075      0.925     
4852       0          0          0          0.15       0          0.85       0          0          0         
4854       0          0          0          0.3        0          0          0          0.275      0.425     
4856       0          0          0          0.15       0          0.7        0          0          0.15      
4858       0          0          0          0          0          0          0          0.5        0.5       
4858.5     0          0          0          0          0          0          0          0.075      0.925     
4860       0          0          0          0.3        0          0          0          0.275      0.425     
