~Version
 VERS              .         2.0                           : CWLS LOG ASCII STANDARD - VERSION 2.0
 WRAP              .         NO                            : ONE LINE PER DEPTH STEP
 DLM               .         SPACE                         : DELIMITING CHARACTER(SPACE TAB OR COMMA)
~Well Information
#_______________________________________________________________________________
#
#PARAMETER_NAME    .UNIT     VALUE                         : DESCRIPTION
#_______________________________________________________________________________
STRT               .m        0                             : First reference value
STOP               .m        5344                          : Last reference value
STEP               .m        0                             : Step increment
NULL               .         -9999                         : Missing value
COMP               .         OEL                           : Company
WELL               .         PLESHET 01                    : Well name
FLD                .                                       : Field
LOC                .                                       : Location
PROV               .                                       : Province
SRVC               .                                       : Service Company
DATE               .                                       : Date
UWI                .         339                           : Unique Well ID
API                .         5                             : API NUMBER
CNTY               .         ISRAEL                        : COUNTY
COUNTRY            .         ISRAEL                        : COUNTRY
Completion_date    .dd/mm/yyyy 10.07.1984                    : 
CTRY               .         Israel                        : 
EREF               .m        157.83                        : KB
GDAT               .                                       : Geodetic Datum
HZCS               .         EPSG_2039                     : 
LOC2               .                                       : LOCATION 2
LOC3               .                                       : LOCATION 3
LATI               .         110.1913888889                : LATITUDE
LONG               .         134.0763888889                : LONGITUDE
ORIGINALWELLNAME   .         PLESHET 1                     : 
SLAT               .         110.191389                    : Surface latitude
SLON               .         134.076389                    : surface longitude
SON                .                                       : SERVICE ORDER #
SPDA               .dd/mm/yyyy 22.09.1983                    : 
STAT               .                                       : STATE
WSTA               .         O-DH                          : Well_type
TVD                .         NO                            : TVD flag
TD                 .m        5344                          : 
Water_depth        .m                                      : 
X                  .m        170844                        : 
Y                  .m        600612                        : 
~Tops_Parameter
#_______________________________________________________________________________
#
#PARAMETER_NAME    .UNIT     VALUE                         : DESCRIPTION
#_______________________________________________________________________________
SET                .         DATA ROCK DISC                : 
TLFamily_MD        .         Measured Depth                : 
TLFamily_anhydrite .         Lithology (Mudlogs)           : 
TLFamily_coal      .         Lithology (Mudlogs)           : 
TLFamily_crystalline .         Lithology (Mudlogs)           : 
TLFamily_dolomite  .         Lithology (Mudlogs)           : 
TLFamily_gravel    .         Lithology (Mudlogs)           : 
TLFamily_limestone .         Lithology (Mudlogs)           : 
TLFamily_salt      .         Lithology (Mudlogs)           : 
TLFamily_sandstone .         Lithology (Mudlogs)           : 
TLFamily_shale     .         Lithology (Mudlogs)           : 
group              .         MUDLOG                        : 
~Curve Information
#_______________________________________________________________________________
#
#LOGNAME           .UNIT     LOG_ID                        : DESCRIPTION
#_______________________________________________________________________________
MD                 .m                                      :  
anhydrite          .v/v                                    : Description 
coal               .v/v                                    : Description 
crystalline        .v/v                                    : Description 
dolomite           .v/v                                    : Description 
gravel             .v/v                                    : Description 
limestone          .v/v                                    : Description 
salt               .v/v                                    : Description 
sandstone          .v/v                                    : Description 
shale              .v/v                                    : Description 
~Ascii
# ...
3750       0.15       0          0          0.55       0          0.15       0          0          0.15      
3775       0          0          0          0          0          0          0          0          1         
3776       0.15       0          0          0.55       0          0.15       0          0          0.15      
3792       0.15       0          0          0.7        0          0          0          0          0.15      
3799       0          0          0          0          0          0          0          0          1         
3800       0.15       0          0          0.7        0          0          0          0          0.15      
3810       0          0          0          0          0          0          0          0          1         
3811       0.15       0          0          0.7        0          0          0          0          0.15      
3820       0          0          0          0          0          0          0          0          1         
3821       0.15       0          0          0.7        0          0          0          0          0.15      
3837       0          0          0          0          0          0          0          0          1         
3839       0          0          0          0          0          0.7        0          0          0.3       
3840       0          0          0.15       0.7        0          0          0          0          0.15      
3840.5     0          0          0          0.15       0          0.55       0          0          0.3       
3844.5     0          0          0          0          0          0          0          0          1         
3845       0          0          0          0.15       0          0.7        0          0          0.15      
3847       0          0          0          0.85       0          0          0          0          0.15      
3847.5     0          0          0          0          0          0          0          0          1         
3848.5     0          0          0          0.15       0          0.7        0          0          0.15      
3852       0          0          0          0.85       0          0          0          0          0.15      
3853       0          0          0          0.15       0          0.55       0          0          0.3       
3855       0          0          0          0          0          0          0          0          1         
3856       0          0          0          0.7        0          0.15       0          0          0.15      
3858       0          0          0          0.15       0          0.7        0          0          0.15      
3859       0          0          0          0          0          0          0          0          1         
3860       0          0          0          0.15       0          0.55       0          0          0.3       
3862       0          0          0          0          0          0          0          0          1         
3863       0          0          0          0.85       0          0          0          0          0.15      
3864       0          0          0          0          0          0.7        0          0          0.3       
3870       0          0          0          0          0          0          0          0          1         
3871       0          0          0          0          0          0.7        0          0          0.3       
3876       0          0          0.15       0.85       0          0          0          0          0         
3877       0          0          0          0          0          0.7        0          0          0.3       
3883       0          0          0          0          0          0          0          0          1         
3884       0          0          0          0.15       0          0.7        0          0          0.15      
3887       0          0          0          1          0          0          0          0          0         
3887.5     0          0          0          0.15       0          0.7        0          0          0.15      
3893       0          0          0.15       0.85       0          0          0          0          0         
3893.5     0          0          0          0.15       0          0.7        0          0          0.15      
3897       0          0          0          0          0          0          0          0          1         
3898       0          0          0          0.15       0          0.85       0          0          0         
3902       0          0          0.15       0.85       0          0          0          0          0         
3903       0          0          0          0.15       0          0.85       0          0          0         
3906       0          0          0          0          0          0          0          0          1         
3906.5     0          0          0          0.15       0          0.85       0          0          0         
3924.5     0          0          0          1          0          0          0          0          0         
3925       0          0          0          0          0          0.85       0          0          0.15      
3928       0          0          0          0          0          0          0          0          1         
3929       0          0          0          0.15       0          0.85       0          0          0         
3934       0          0          0          1          0          0          0          0          0         
3935       0          0          0          0          0          0          0          0          1         
3935.5     0          0          0          0          0          0.85       0          0          0.15      
3937       0          0          0          0          0          0          0          0          1         
3938       0          0          0          1          0          0          0          0          0         
3938.5     0          0          0          0.15       0          0.85       0          0          0         
3940       0          0          0          1          0          0          0          0          0         
3943       0          0          0          0          0          0          0          0          1         
3944       0          0          0          1          0          0          0          0          0         
3945       0          0          0          1          0          0          0          0          0         
3946.5     0          0          0          0          0          0          0          0          1         
3947       0          0          0          1          0          0          0          0          0         
3948       0          0          0          0.15       0          0.55       0          0          0.3       
3950       0          0          0          0          0          1          0          0          0         
3951       0          0          0          0.15       0          0.7        0          0          0.15      
3959.5     0          0          0          0          0          0          0          0          1         
3960       0          0          0          0.15       0          0.7        0          0          0.15      
3968       0          0          0          0          0          0.15       0          0          0.85      
3969       0          0          0          0.15       0          0.55       0          0          0.3       
3970       0          0          0          0          0          0.15       0          0          0.85      
3970.5     0          0          0          0.15       0          0.85       0          0          0         
3973.5     0          0          0          0          0          0.15       0          0          0.85      
3974       0          0          0          0.15       0          0.7        0          0          0.15      
3985       0          0          0          0          0          0          0          0          1         
