~Version
 VERS              .         2.0                           : CWLS LOG ASCII STANDARD - VERSION 2.0
 WRAP              .         NO                            : ONE LINE PER DEPTH STEP
 DLM               .         SPACE                         : DELIMITING CHARACTER(SPACE TAB OR COMMA)
~Well Information
#_______________________________________________________________________________
#
#PARAMETER_NAME    .UNIT     VALUE                         : DESCRIPTION
#_______________________________________________________________________________
STRT               .m        0                             : First reference value
STOP               .m        5344                          : Last reference value
STEP               .m        0                             : Step increment
NULL               .         -9999                         : Missing value
COMP               .         OEL                           : Company
WELL               .         PLESHET 01                    : Well name
FLD                .                                       : Field
LOC                .                                       : Location
PROV               .                                       : Province
SRVC               .                                       : Service Company
DATE               .                                       : Date
UWI                .         339                           : Unique Well ID
API                .         5                             : API NUMBER
CNTY               .         ISRAEL                        : COUNTY
COUNTRY            .         ISRAEL                        : COUNTRY
Completion_date    .dd/mm/yyyy 10.07.1984                    : 
CTRY               .         Israel                        : 
EREF               .m        157.83                        : KB
GDAT               .                                       : Geodetic Datum
HZCS               .         EPSG_2039                     : 
LOC2               .                                       : LOCATION 2
LOC3               .                                       : LOCATION 3
LATI               .         110.1913888889                : LATITUDE
LONG               .         134.0763888889                : LONGITUDE
ORIGINALWELLNAME   .         PLESHET 1                     : 
SLAT               .         110.191389                    : Surface latitude
SLON               .         134.076389                    : surface longitude
SON                .                                       : SERVICE ORDER #
SPDA               .dd/mm/yyyy 22.09.1983                    : 
STAT               .                                       : STATE
WSTA               .         O-DH                          : Well_type
TVD                .         NO                            : TVD flag
TD                 .m        5344                          : 
Water_depth        .m                                      : 
X                  .m        170844                        : 
Y                  .m        600612                        : 
~Tops_Parameter
#_______________________________________________________________________________
#
#PARAMETER_NAME    .UNIT     VALUE                         : DESCRIPTION
#_______________________________________________________________________________
SET                .         DATA ROCK DISC                : 
TLFamily_MD        .         Measured Depth                : 
TLFamily_anhydrite .         Lithology (Mudlogs)           : 
TLFamily_coal      .         Lithology (Mudlogs)           : 
TLFamily_crystalline .         Lithology (Mudlogs)           : 
TLFamily_dolomite  .         Lithology (Mudlogs)           : 
TLFamily_gravel    .         Lithology (Mudlogs)           : 
TLFamily_limestone .         Lithology (Mudlogs)           : 
TLFamily_salt      .         Lithology (Mudlogs)           : 
TLFamily_sandstone .         Lithology (Mudlogs)           : 
TLFamily_shale     .         Lithology (Mudlogs)           : 
group              .         MUDLOG                        : 
~Curve Information
#_______________________________________________________________________________
#
#LOGNAME           .UNIT     LOG_ID                        : DESCRIPTION
#_______________________________________________________________________________
MD                 .m                                      :  
anhydrite          .v/v                                    : Description 
coal               .v/v                                    : Description 
crystalline        .v/v                                    : Description 
dolomite           .v/v                                    : Description 
gravel             .v/v                                    : Description 
limestone          .v/v                                    : Description 
salt               .v/v                                    : Description 
sandstone          .v/v                                    : Description 
shale              .v/v                                    : Description 
~Ascii
# ...
1932.5     0          0          0          0          0          0          0          0          1         
1933       0          0          0          0.15       0          0.7        0          0.15       0         
1935       0          0.15       0          0          0          0          0          0.225      0.625     
1935.5     0          0          0          0.15       0          0          0          0.7        0.15      
1941       0          0          0          0.15       0          0.7        0          0.15       0         
1943       0          0.15       0          0          0          0          0          0          0.85      
1945       0          0          0          0          0          0          0          1          0         
1947       0          0          0          0          0          1          0          0          0         
1948       0          0          0          0          0          0          0          0.225      0.775     
1949       0          0          0          0          0          0          0          1          0         
1950       0          0.15       0          0          0          0          0          0          0.85      
1952       0          0          0          0          0          0          0          1          0         
1956       0          0.15       0          0          0          0          0          0.225      0.625     
1956.5     0          0          0          0          0          0          0          1          0         
1959.5     0          0.15       0          0          0          0          0          0.225      0.625     
1961.5     0          0          0          0          0          0          0          1          0         
1965       0          0.15       0          0          0          0          0          0.225      0.625     
1968       0          0          0          0.3        0          0          0          0.4        0.3       
1969.5     0          0          0          0          0          0          0          0.225      0.775     
1970       0          0          0          0.15       0          0          0          0.55       0.3       
1974       0          0          0          0          0          1          0          0          0         
1975       0          0          0          0.3        0          0          0          0.4        0.3       
1978       0          0          0          0          0          0          0          0.225      0.775     
1978.5     0          0.15       0          0.3        0          0          0          0.4        0.15      
1980       0          0          0          0          0          0          0          0          1         
1982.5     0          0          0          0          0          0          0          1          0         
1983       0          0.15       0          0          0          0          0          0.225      0.625     
1991.5     0          0          0          0          0          0          0          1          0         
1992       0          0.15       0          0          0          0          0          0.15       0.7       
1993       0          0          0          0          0          0.3        0          0.55       0.15      
1994.5     0          0          0          0.3        0          0          0          0.4        0.3       
1997       0          0          0          0          0          0          0          0.225      0.775     
1997.5     0          0          0          0.3        0          0          0          0.4        0.3       
1999.5     0          0          0          0          0          0          0          0.225      0.775     
2000       0          0          0          0.3        0          0          0          0.4        0.3       
2005       0          0          0          0          0          0          0          0.225      0.775     
2006.5     0          0          0          0.3        0          0          0          0.4        0.3       
2017       0          0          0          0          0          0          0          0.225      0.775     
2020       0          0          0          0.15       0          0          0          0.55       0.3       
2023       0          0          0          0          0          0          0          0.225      0.775     
2027       0          0          0          0.15       0          0          0          0.55       0.3       
2028.5     0          0          0          0          0          0          0          0.225      0.775     
2031       0          0.15       0          0.15       0          0          0          0.55       0.15      
2033       0          0          0          0          0          0          0          0.225      0.775     
2035       0          0          0          0.15       0          0          0          0.7        0.15      
2036       0          0          0          0          0          0          0          0.225      0.775     
2038       0          0          0          0.15       0          0          0          0.55       0.3       
2040       0          0          0          0          0          0.15       0          0.15       0.7       
2041       0          0.15       0          0.15       0          0          0          0.55       0.15      
2045       0          0          0          0          0          0.15       0          0.225      0.625     
2049       0          0          0          0          0          0          0          1          0         
2051       0          0.15       0          0          0          0          0          0.075      0.775     
2052       0          0.15       0          0          0          0          0          0.7        0.15      
2055       0          0          0          0          0          0.15       0          0.15       0.7       
2057       0          0          0          0          0          0          0          0.85       0.15      
2059       0          0          0          0          0          0          0          0.225      0.775     
2061       0          0          0          0          0          0          0          0.85       0.15      
2066       0          0          0          0          0          0.15       0          0.075      0.775     
2068       0          0          0          0          0          0          0          1          0         
2068.5     0          0          0          0          0          0.15       0          0.225      0.625     
2070       0          0          0          0          0          0          0          1          0         
2070.5     0          0          0          0          0          0.15       0          0.225      0.625     
2073       0          0          0          0          0          0.15       0          0.7        0.15      
2076       0          0          0          0          0          0.15       0          0.225      0.625     
2077       0          0          0          0          0          0          0          0.85       0.15      
2079       0          0          0          0          0          0.15       0          0.15       0.7       
2080       0          0          0          0          0          0.15       0          0.7        0.15      
2082       0          0.15       0          0          0          0          0          0.075      0.775     
2089       0          0          0          0          0          0          0          1          0         
2091.5     0          0          0          0          0          0          0          0          1         
2092       0          0          0          0          0          0          0          1          0         
2095       0          0.15       0          0          0          0          0          0.075      0.775     
2100       0          0          0          0          0          0          0          1          0         
