~Version
 VERS              .         2.0                           : CWLS LOG ASCII STANDARD - VERSION 2.0
 WRAP              .         NO                            : ONE LINE PER DEPTH STEP
 DLM               .         SPACE                         : DELIMITING CHARACTER(SPACE TAB OR COMMA)
~Well Information
#_______________________________________________________________________________
#
#PARAMETER_NAME    .UNIT     VALUE                         : DESCRIPTION
#_______________________________________________________________________________
STRT               .m        0                             : First reference value
STOP               .m        5344                          : Last reference value
STEP               .m        0                             : Step increment
NULL               .         -9999                         : Missing value
COMP               .         OEL                           : Company
WELL               .         PLESHET 01                    : Well name
FLD                .                                       : Field
LOC                .                                       : Location
PROV               .                                       : Province
SRVC               .                                       : Service Company
DATE               .                                       : Date
UWI                .         339                           : Unique Well ID
API                .         5                             : API NUMBER
CNTY               .         ISRAEL                        : COUNTY
COUNTRY            .         ISRAEL                        : COUNTRY
Completion_date    .dd/mm/yyyy 10.07.1984                    : 
CTRY               .         Israel                        : 
EREF               .m        157.83                        : KB
GDAT               .                                       : Geodetic Datum
HZCS               .         EPSG_2039                     : 
LOC2               .                                       : LOCATION 2
LOC3               .                                       : LOCATION 3
LATI               .         110.1913888889                : LATITUDE
LONG               .         134.0763888889                : LONGITUDE
ORIGINALWELLNAME   .         PLESHET 1                     : 
SLAT               .         110.191389                    : Surface latitude
SLON               .         134.076389                    : surface longitude
SON                .                                       : SERVICE ORDER #
SPDA               .dd/mm/yyyy 22.09.1983                    : 
STAT               .                                       : STATE
WSTA               .         O-DH                          : Well_type
TVD                .         NO                            : TVD flag
TD                 .m        5344                          : 
Water_depth        .m                                      : 
X                  .m        170844                        : 
Y                  .m        600612                        : 
~Tops_Parameter
#_______________________________________________________________________________
#
#PARAMETER_NAME    .UNIT     VALUE                         : DESCRIPTION
#_______________________________________________________________________________
SET                .         DATA ROCK DISC                : 
TLFamily_MD        .         Measured Depth                : 
TLFamily_anhydrite .         Lithology (Mudlogs)           : 
TLFamily_coal      .         Lithology (Mudlogs)           : 
TLFamily_crystalline .         Lithology (Mudlogs)           : 
TLFamily_dolomite  .         Lithology (Mudlogs)           : 
TLFamily_gravel    .         Lithology (Mudlogs)           : 
TLFamily_limestone .         Lithology (Mudlogs)           : 
TLFamily_salt      .         Lithology (Mudlogs)           : 
TLFamily_sandstone .         Lithology (Mudlogs)           : 
TLFamily_shale     .         Lithology (Mudlogs)           : 
group              .         MUDLOG                        : 
~Curve Information
#_______________________________________________________________________________
#
#LOGNAME           .UNIT     LOG_ID                        : DESCRIPTION
#_______________________________________________________________________________
MD                 .m                                      :  
anhydrite          .v/v                                    : Description 
coal               .v/v                                    : Description 
crystalline        .v/v                                    : Description 
dolomite           .v/v                                    : Description 
gravel             .v/v                                    : Description 
limestone          .v/v                                    : Description 
salt               .v/v                                    : Description 
sandstone          .v/v                                    : Description 
shale              .v/v                                    : Description 
~Ascii
# ...
1814.5     0          0          0          0.15       0          0.85       0          0          0         
1815       0          0          0          0          0          0.15       0          0          0.85      
1816       0          0          0          0          0          1          0          0          0         
1816.5     0          0          0          0          0          0.15       0          0          0.85      
1818       0          0          0          0.15       0          0.85       0          0          0         
1820       0          0          0          0          0          0.15       0          0          0.85      
1821       0          0          0          0          0          0.85       0          0          0.15      
1823       0          0.15       0          0          0          0          0          0          0.85      
1826       0          0          0          0          0          1          0          0          0         
1832       0          0.15       0          0          0          0          0          0          0.85      
1833       0          0          0          0          0          1          0          0          0         
1834       0          0.15       0          0          0          0          0          0.075      0.775     
1836       0          0          0          0          0          0.85       0          0          0.15      
1836.5     0          0.15       0          0          0          0          0          0.075      0.775     
1841       0          0          0          0          0          0.85       0          0          0.15      
1841.5     0          0          0          0          0          0          0          0.075      0.925     
1842.5     0          0          0          0          0          0.85       0          0          0.15      
1843       0          0          0          0          0          0.15       0          0.075      0.775     
1845       0          0          0          0          0          0.85       0          0          0.15      
1845.5     0          0          0          0          0          0          0          0.075      0.925     
1847       0          0          0          0          0          1          0          0          0         
1848       0          0          0          0          0          0.15       0          0.075      0.775     
1848.5     0          0          0          0          0          0.85       0          0          0.15      
1850.5     0          0          0          0          0          0.15       0          0.075      0.775     
1851       0          0          0          0          0          0.85       0          0          0.15      
1852       0          0          0          0          0          0.15       0          0.075      0.775     
1853.5     0          0          0          0          0          0.85       0          0          0.15      
1854       0          0.15       0          0          0          0          0          0.075      0.775     
1855.5     0          0          0          0          0          0.85       0          0          0.15      
1859.5     0          0.15       0          0          0          0          0          0.075      0.775     
1860       0          0          0          0          0          1          0          0          0         
1860.5     0          0.15       0          0          0          0          0          0.075      0.775     
1861       0          0          0          0          0          0.85       0          0          0.15      
1864       0          0          0          0          0          0          0          0.075      0.925     
1865.5     0          0          0          0          0          0          0          1          0         
1866.5     0          0          0          0          0          1          0          0          0         
1867       0          0          0          0          0          0.15       0          0          0.85      
1868.5     0          0          0          0          0          1          0          0          0         
1869       0          0          0          0          0          0          0          0.075      0.925     
1871       0          0          0          0          0          1          0          0          0         
1871.5     0          0          0          0          0          0.15       0          0.075      0.775     
1874       0          0          0          0          0          0.55       0          0.15       0.3       
1880       0          0          0          0          0          0          0          0.15       0.85      
1881       0          0.15       0          0          0          0.15       0          0.55       0.15      
1884.5     0          0          0          0          0          0          0          0.15       0.85      
1885       0          0.15       0          0          0          0.15       0          0.55       0.15      
1887       0          0          0          0          0          0          0          0          1         
1889       0          0          0          0          0          0.45       0          0.55       0         
1892       0          0          0          0          0          1          0          0          0         
1897       0          0          0          0          0          0          0          0          1         
1897.5     0          0          0          0          0          0.15       0          0.85       0         
1900       0          0          0          0          0          0          0          0          1         
1900.5     0          0          0          0          0          0.15       0          0.85       0         
1901       0          0.15       0          0          0          0          0          0.15       0.7       
1902       0          0          0          0          0          0.3        0          0.7        0         
1903       0          0          0          0          0          0          0          0.225      0.775     
1904       0          0          0          0          0          1          0          0          0         
1906       0          0          0          0          0          0.15       0          0.7        0.15      
1907       0          0.15       0          0          0          0          0          0          0.85      
1907.5     0          0          0          0          0          0.15       0          0.7        0.15      
1908.5     0          0.15       0          0          0          0          0          0.225      0.625     
1909       0          0          0          0          0          1          0          0          0         
1911       0          0.15       0          0          0          0          0          0          0.85      
1912       0          0          0          0.15       0          0.7        0          0.15       0         
1915       0          0          0          0          0          0          0          0.225      0.775     
1915.5     0          0          0          0.15       0          0.7        0          0.15       0         
1917       0          0          0          0          0          0.15       0          0.15       0.7       
1918       0          0          0          0.15       0          0.7        0          0.15       0         
1921       0          0          0          0.3        0          0          0          0.55       0.15      
1924       0          0          0          0          0          0          0          0.225      0.775     
1925       0          0          0          0          0          0.85       0          0.15       0         
1930       0          0          0          0          0          0.15       0          0.075      0.775     
1931       0          0          0          0.15       0          0.7        0          0.15       0         
