~Version
 VERS              .         2.0                           : CWLS LOG ASCII STANDARD - VERSION 2.0
 WRAP              .         NO                            : ONE LINE PER DEPTH STEP
 DLM               .         SPACE                         : DELIMITING CHARACTER(SPACE TAB OR COMMA)
~Well Information
#_______________________________________________________________________________
#
#PARAMETER_NAME    .UNIT     VALUE                         : DESCRIPTION
#_______________________________________________________________________________
STRT               .m        0                             : First reference value
STOP               .m        5344                          : Last reference value
STEP               .m        0                             : Step increment
NULL               .         -9999                         : Missing value
COMP               .         OEL                           : Company
WELL               .         PLESHET 01                    : Well name
FLD                .                                       : Field
LOC                .                                       : Location
PROV               .                                       : Province
SRVC               .                                       : Service Company
DATE               .                                       : Date
UWI                .         339                           : Unique Well ID
API                .         5                             : API NUMBER
CNTY               .         ISRAEL                        : COUNTY
COUNTRY            .         ISRAEL                        : COUNTRY
Completion_date    .dd/mm/yyyy 10.07.1984                    : 
CTRY               .         Israel                        : 
EREF               .m        157.83                        : KB
GDAT               .                                       : Geodetic Datum
HZCS               .         EPSG_2039                     : 
LOC2               .                                       : LOCATION 2
LOC3               .                                       : LOCATION 3
LATI               .         110.1913888889                : LATITUDE
LONG               .         134.0763888889                : LONGITUDE
ORIGINALWELLNAME   .         PLESHET 1                     : 
SLAT               .         110.191389                    : Surface latitude
SLON               .         134.076389                    : surface longitude
SON                .                                       : SERVICE ORDER #
SPDA               .dd/mm/yyyy 22.09.1983                    : 
STAT               .                                       : STATE
WSTA               .         O-DH                          : Well_type
TVD                .         NO                            : TVD flag
TD                 .m        5344                          : 
Water_depth        .m                                      : 
X                  .m        170844                        : 
Y                  .m        600612                        : 
~Tops_Parameter
#_______________________________________________________________________________
#
#PARAMETER_NAME    .UNIT     VALUE                         : DESCRIPTION
#_______________________________________________________________________________
SET                .         DATA ROCK DISC                : 
TLFamily_MD        .         Measured Depth                : 
TLFamily_anhydrite .         Lithology (Mudlogs)           : 
TLFamily_coal      .         Lithology (Mudlogs)           : 
TLFamily_crystalline .         Lithology (Mudlogs)           : 
TLFamily_dolomite  .         Lithology (Mudlogs)           : 
TLFamily_gravel    .         Lithology (Mudlogs)           : 
TLFamily_limestone .         Lithology (Mudlogs)           : 
TLFamily_salt      .         Lithology (Mudlogs)           : 
TLFamily_sandstone .         Lithology (Mudlogs)           : 
TLFamily_shale     .         Lithology (Mudlogs)           : 
group              .         MUDLOG                        : 
~Curve Information
#_______________________________________________________________________________
#
#LOGNAME           .UNIT     LOG_ID                        : DESCRIPTION
#_______________________________________________________________________________
MD                 .m                                      :  
anhydrite          .v/v                                    : Description 
coal               .v/v                                    : Description 
crystalline        .v/v                                    : Description 
dolomite           .v/v                                    : Description 
gravel             .v/v                                    : Description 
limestone          .v/v                                    : Description 
salt               .v/v                                    : Description 
sandstone          .v/v                                    : Description 
shale              .v/v                                    : Description 
~Ascii
# ...
4473       0          0          0          0.15       0          0.7        0          0          0.15      
4479       0          0          0          0          0          0          0          0          1         
4482       0          0.15       0          0.15       0          0.55       0          0          0.15      
4485       0          0          0          0          0          0.7        0          0          0.3       
4486       0          0          0          0          0          0.85       0          0          0.15      
4490       0          0          0          0          0          0          0          0.375      0.625     
4500       0          0          0          0          0.55       0.15       0          0.15       0.15      
4503       0          0          0          0.55       0          0.3        0          0          0.15      
4507       0          0          0          0          0          0          0          0.225      0.775     
4512       0          0          0          0          0          1          0          0          0         
4513       0          0          0          0          0          0          0          0.225      0.775     
4516       0          0          0          1          0          0          0          0          0         
4516.5     0          0          0          0          0          0          0          0.225      0.775     
4519.5     0          0          0          0          0          0          0          1          0         
4520       0          0          0          0          0          0          0          0.225      0.775     
4522       0          0          0          1          0          0          0          0          0         
4522.5     0          0          0          0          0          0          0          0.225      0.775     
4524       0          0          0          0.15       0          0.55       0          0          0.3       
4526       0          0          0          0          0          0.15       0          0          0.85      
4527       0          0          0          0.15       0          0.55       0          0          0.3       
4529       0          0          0          0          0          0.15       0          0          0.85      
4530       0          0          0          0.15       0          0.7        0          0          0.15      
4532.5     0          0          0          0          0          0.15       0          0          0.85      
4533       0          0          0          1          0          0          0          0          0         
4534.5     0          0          0          0          0          0.15       0          0          0.85      
4537       0          0          0          1          0          0          0          0          0         
4537.5     0          0          0          0          0          0          0          0          1         
4538       0          0          0          0.55       0          0.15       0          0          0.3       
4555.5     0          0          0          0          0          0          0          0          1         
4556       0.15       0          0          0.55       0          0          0          0          0.3       
4568       0          0          0          0          0          0          0          0          1         
4568.5     0          0          0          0.7        0          0          0          0          0.3       
4574       0          0          0          0.15       0          0.7        0          0          0.15      
4574.5     0.15       0          0          0.55       0          0          0          0          0.3       
4580       0          0          0          0          0          0.85       0          0          0.15      
4581       0.15       0          0          0.55       0          0          0          0          0.3       
4591       0          0          0          0          0          0          0          0          1         
4591.5     0.15       0          0          0.55       0          0          0          0          0.3       
4595.5     0.15       0          0          0.55       0          0          0          0          0.3       
4597       0.15       0          0          0.55       0          0          0          0          0.3       
4600       1          0          0          0          0          0          0          0          0         
4600.3     0.15       0          0          0.7        0          0          0          0          0.15      
4605.1     0          0          0          0          0          0          0          0          0         
4606       0          0          0          0.7        0          0          0          0          0.3       
4609       0          0          0          0          0          0          0          0          1         
4610       0.15       0          0          0.55       0          0          0          0          0.3       
4625       0          0          0          0.7        0          0          0          0          0.3       
4632.5     0          0          0          0          0          0          0          0          1         
4633       0.15       0          0          0.55       0          0          0          0          0.3       
4634       0          0          0          0.15       0          0.7        0          0          0.15      
4645       0          0          0          0.15       0          0.7        0          0          0.15      
4656       0          0          0          0          0          0          0          0          1         
4658       0          0          0          0.15       0          0.55       0          0          0.3       
4661       0          0          0          0          0          0          0          0          1         
4663       0          0          0          0.15       0          0.7        0          0          0.15      
4664       0          0          0          0          0          0          0          0          1         
4665       0          0          0          0.15       0          0.85       0          0          0         
4667       0          0          0          0          0          0          0          0.225      0.775     
4669.5     0          0          0          0.3        0          0          0          0.2        0.5       
4670       0          0          0          0          0          0          0          0.225      0.775     
4672       0          0          0          0.45       0          0          0          0.125      0.425     
4672.5     0          0          0          0          0          0          0          0.225      0.775     
4675       0          0          0          0.3        0          0          0          0.2        0.5       
4675.5     0          0          0          0          0          0          0          0.225      0.775     
4676.5     0          0          0          0.3        0          0          0          0.2        0.5       
4677       0          0          0          0          0          0          0          0.225      0.775     
4678.5     0          0          0          0.3        0          0          0          0.2        0.5       
4679       0          0          0          0          0          0          0          0.225      0.775     
4680.5     0          0          0          0.3        0          0          0          0.2        0.5       
4681       0          0          0          0          0          0          0          0.375      0.625     
4683       0          0          0          0.3        0          0          0          0.2        0.5       
4683.5     0          0          0          0          0          0.15       0          0.15       0.7       
4685       0          0          0          0.3        0          0          0          0.275      0.425     
