~Version
 VERS              .         2.0                           : CWLS LOG ASCII STANDARD - VERSION 2.0
 WRAP              .         NO                            : ONE LINE PER DEPTH STEP
 DLM               .         SPACE                         : DELIMITING CHARACTER(SPACE TAB OR COMMA)
~Well Information
#_______________________________________________________________________________
#
#PARAMETER_NAME    .UNIT     VALUE                         : DESCRIPTION
#_______________________________________________________________________________
STRT               .m        0                             : First reference value
STOP               .m        5344                          : Last reference value
STEP               .m        0                             : Step increment
NULL               .         -9999                         : Missing value
COMP               .         OEL                           : Company
WELL               .         PLESHET 01                    : Well name
FLD                .                                       : Field
LOC                .                                       : Location
PROV               .                                       : Province
SRVC               .                                       : Service Company
DATE               .                                       : Date
UWI                .         339                           : Unique Well ID
API                .         5                             : API NUMBER
CNTY               .         ISRAEL                        : COUNTY
COUNTRY            .         ISRAEL                        : COUNTRY
Completion_date    .dd/mm/yyyy 10.07.1984                    : 
CTRY               .         Israel                        : 
EREF               .m        157.83                        : KB
GDAT               .                                       : Geodetic Datum
HZCS               .         EPSG_2039                     : 
LOC2               .                                       : LOCATION 2
LOC3               .                                       : LOCATION 3
LATI               .         110.1913888889                : LATITUDE
LONG               .         134.0763888889                : LONGITUDE
ORIGINALWELLNAME   .         PLESHET 1                     : 
SLAT               .         110.191389                    : Surface latitude
SLON               .         134.076389                    : surface longitude
SON                .                                       : SERVICE ORDER #
SPDA               .dd/mm/yyyy 22.09.1983                    : 
STAT               .                                       : STATE
WSTA               .         O-DH                          : Well_type
TVD                .         NO                            : TVD flag
TD                 .m        5344                          : 
Water_depth        .m                                      : 
X                  .m        170844                        : 
Y                  .m        600612                        : 
~Tops_Parameter
#_______________________________________________________________________________
#
#PARAMETER_NAME    .UNIT     VALUE                         : DESCRIPTION
#_______________________________________________________________________________
SET                .         DATA ROCK DISC                : 
TLFamily_MD        .         Measured Depth                : 
TLFamily_anhydrite .         Lithology (Mudlogs)           : 
TLFamily_coal      .         Lithology (Mudlogs)           : 
TLFamily_crystalline .         Lithology (Mudlogs)           : 
TLFamily_dolomite  .         Lithology (Mudlogs)           : 
TLFamily_gravel    .         Lithology (Mudlogs)           : 
TLFamily_limestone .         Lithology (Mudlogs)           : 
TLFamily_salt      .         Lithology (Mudlogs)           : 
TLFamily_sandstone .         Lithology (Mudlogs)           : 
TLFamily_shale     .         Lithology (Mudlogs)           : 
group              .         MUDLOG                        : 
~Curve Information
#_______________________________________________________________________________
#
#LOGNAME           .UNIT     LOG_ID                        : DESCRIPTION
#_______________________________________________________________________________
MD                 .m                                      :  
anhydrite          .v/v                                    : Description 
coal               .v/v                                    : Description 
crystalline        .v/v                                    : Description 
dolomite           .v/v                                    : Description 
gravel             .v/v                                    : Description 
limestone          .v/v                                    : Description 
salt               .v/v                                    : Description 
sandstone          .v/v                                    : Description 
shale              .v/v                                    : Description 
~Ascii
# ...
4860.5     0          0          0          0.15       0          0          0          0.225      0.625     
4862       0          0          0          0          0          1          0          0          0         
4863       0          0          0          0.3        0          0          0          0.275      0.425     
4864       0          0          0          0.15       0          0.7        0          0.075      0.075     
4865       0          0          0          0          0          0          0          0          1         
4865.5     0          0          0          0.15       0          0.55       0          0          0.3       
4885       0          0          0          0.15       0          0.55       0          0.075      0.225     
4891.5     0          0          0          0          0          0          0          0          1         
4892       0          0          0          0.15       0          0.7        0          0.075      0.075     
4903       0          0          0          0          0          0          0          0          1         
4904       0          0          0          0.15       0          0.7        0          0.075      0.075     
4906       0          0          0          0          0          0          0          0.075      0.925     
4909       0          0          0          0.15       0          0.55       0          0.075      0.225     
4918       0          0          0          0          0          0.55       0          0          0.45      
4923.5     0          0          0          0          0          0          0          0          1         
4924.5     0          0          0          0          0          0.7        0          0.075      0.225     
4929       0          0          0          0          0          0          0          0          1         
4930       0          0          0          0.15       0          0.55       0          0.075      0.225     
4934       0          0          0          0          0          0          0          0.075      0.925     
4936       0          0          0          0.15       0          0.55       0          0.075      0.225     
4938       0          0          0          0          0          0          0          0.075      0.925     
4940       0          0          0          0          0          0.55       0          0          0.45      
4942       0          0          0          0          0          0.7        0          0          0.3       
4943.5     0          0          0          0          0          0          0          1          0         
4944       0          0          0          0          0          0.7        0          0          0.3       
4959       0          0          0          0          0          0          0          0          1         
4961       0          0          0          0          0          0          0          1          0         
4961.5     0          0          0          0.15       0          0.55       0          0.15       0.15      
4963       0          0          0          0          0          0          0          0          1         
4963.5     0          0          0          0.15       0          0.7        0          0.15       0         
4969       0          0          0          0          0          0          0          0          1         
4969.5     0          0          0          0.3        0          0          0          0.7        0         
4972.5     0          0          0          0.85       0          0          0          0          0.15      
4973       0          0          0          0.3        0          0          0          0.7        0         
4975       0          0          0          0          0          0.55       0          0.225      0.225     
4976       0          0          0          0          0          0          0          0          1         
4977       0          0          0          0          0          1          0          0          0         
4979       0          0          0          0          0          0          0          1          0         
4980       0          0.15       0          0          0          0          0          0.075      0.775     
4981.5     0          0.15       0          0          0          0.55       0          0.225      0.075     
4982       0          0          0          0          0          0.7        0          0.075      0.225     
4985       0          0.15       0          0          0          0          0          0.075      0.775     
4986       0          0          0          0          0          0.55       0          0.075      0.375     
4988       0          0.15       0          0          0          0          0          0.075      0.775     
4990       0          0          0          0          0          0.55       0          0.225      0.225     
4995       0          0          0          0          0          0          0          0.075      0.925     
4996       0          0          0          0          0          0.55       0          0.225      0.225     
4998.5     0          0          0          0          0          0          0          0.075      0.925     
4999       0          0          0          0          0          0.7        0          0.225      0.075     
5005       0          0.15       0          0          0          0          0          0          0.85      
5006       0          0          0          0          0          0.55       0          0.075      0.375     
5009       0          0          0          0          0          0          0          0.075      0.925     
5010       0          0          0          1          0          0          0          0          0         
5010.5     0          0          0          0          0          0          0          0.075      0.925     
5012       0          0          0          0.15       0          0.7        0          0          0.15      
5017       0          0.15       0          0          0          0          0          0.075      0.775     
5018       0          0          0.15       0.55       0          0          0          0          0.3       
5021       0          0          0          0          0          0          0          0.075      0.925     
5023       0.15       0          0          0.15       0          0          0          0.7        0         
5025       0          0          0          0.15       0          0.85       0          0          0         
5027       0          0.15       0          0          0          0          0          0          0.85      
5029       0.15       0          0          0.15       0          0          0          0.7        0         
5031       0          0          0          0          0          0          0          0.075      0.925     
5033       0.15       0          0          0.15       0          0          0          0.55       0.15      
5035       0          0.15       0          0          0          0          0          0.075      0.775     
5038       0.15       0          0          0.15       0          0          0          0.55       0.15      
5039.5     0          0          0          0          0          1          0          0          0         
5040       0          0.15       0          0          0          0          0          0.075      0.775     
5041.5     0          0          0          0          0          1          0          0          0         
5043       0          0          0          0          0          0          0          0          1         
5044       0          0          0          0          0          1          0          0          0         
5045       0          0.15       0          0          0          0          0          0.075      0.775     
5047       0          0          0          0          0          0          0          1          0         
