~Version
 VERS              .         2.0                           : CWLS LOG ASCII STANDARD - VERSION 2.0
 WRAP              .         NO                            : ONE LINE PER DEPTH STEP
 DLM               .         SPACE                         : DELIMITING CHARACTER(SPACE TAB OR COMMA)
~Well Information
#_______________________________________________________________________________
#
#PARAMETER_NAME    .UNIT     VALUE                         : DESCRIPTION
#_______________________________________________________________________________
STRT               .m        0                             : First reference value
STOP               .m        5344                          : Last reference value
STEP               .m        0                             : Step increment
NULL               .         -9999                         : Missing value
COMP               .         OEL                           : Company
WELL               .         PLESHET 01                    : Well name
FLD                .                                       : Field
LOC                .                                       : Location
PROV               .                                       : Province
SRVC               .                                       : Service Company
DATE               .                                       : Date
UWI                .         339                           : Unique Well ID
API                .         5                             : API NUMBER
CNTY               .         ISRAEL                        : COUNTY
COUNTRY            .         ISRAEL                        : COUNTRY
Completion_date    .dd/mm/yyyy 10.07.1984                    : 
CTRY               .         Israel                        : 
EREF               .m        157.83                        : KB
GDAT               .                                       : Geodetic Datum
HZCS               .         EPSG_2039                     : 
LOC2               .                                       : LOCATION 2
LOC3               .                                       : LOCATION 3
LATI               .         110.1913888889                : LATITUDE
LONG               .         134.0763888889                : LONGITUDE
ORIGINALWELLNAME   .         PLESHET 1                     : 
SLAT               .         110.191389                    : Surface latitude
SLON               .         134.076389                    : surface longitude
SON                .                                       : SERVICE ORDER #
SPDA               .dd/mm/yyyy 22.09.1983                    : 
STAT               .                                       : STATE
WSTA               .         O-DH                          : Well_type
TVD                .         NO                            : TVD flag
TD                 .m        5344                          : 
Water_depth        .m                                      : 
X                  .m        170844                        : 
Y                  .m        600612                        : 
~Tops_Parameter
#_______________________________________________________________________________
#
#PARAMETER_NAME    .UNIT     VALUE                         : DESCRIPTION
#_______________________________________________________________________________
SET                .         DATA ROCK DISC                : 
TLFamily_MD        .         Measured Depth                : 
TLFamily_anhydrite .         Lithology (Mudlogs)           : 
TLFamily_coal      .         Lithology (Mudlogs)           : 
TLFamily_crystalline .         Lithology (Mudlogs)           : 
TLFamily_dolomite  .         Lithology (Mudlogs)           : 
TLFamily_gravel    .         Lithology (Mudlogs)           : 
TLFamily_limestone .         Lithology (Mudlogs)           : 
TLFamily_salt      .         Lithology (Mudlogs)           : 
TLFamily_sandstone .         Lithology (Mudlogs)           : 
TLFamily_shale     .         Lithology (Mudlogs)           : 
group              .         MUDLOG                        : 
~Curve Information
#_______________________________________________________________________________
#
#LOGNAME           .UNIT     LOG_ID                        : DESCRIPTION
#_______________________________________________________________________________
MD                 .m                                      :  
anhydrite          .v/v                                    : Description 
coal               .v/v                                    : Description 
crystalline        .v/v                                    : Description 
dolomite           .v/v                                    : Description 
gravel             .v/v                                    : Description 
limestone          .v/v                                    : Description 
salt               .v/v                                    : Description 
sandstone          .v/v                                    : Description 
shale              .v/v                                    : Description 
~Ascii
0.0        0          0          0          0          0          0          0          0          0         
20         0          0          0          0          0          0.3        0          0.55       0.15      
23         0          0          0          0          0          0.15       0          0.55       0.3       
30         0          0          0          0          0.85       0.15       0          0          0         
34         0          0          0          0          0          0.3        0          0.55       0.15      
42         0          0          0          0          0          0          0          0.85       0.15      
44         0          0          0          0          0          0.3        0          0.7        0         
54         0          0          0          0          0          0.6        0          0.4        0         
62         0          0          0          0          0          0.15       0          0.075      0.775     
100        0          0          0          0          0          0.15       0          0.075      0.775     
116        0          0          0          0          0          0.15       0          0.075      0.775     
126        0          0.15       0          0          0          0          0          0          0.85      
129        0          0          0          0          0          0.425      0          0          0.575     
133        0          0          0          0          0          0.85       0          0          0.15      
143        0          0          0          0          0          0.575      0          0          0.425     
152        0          0          0          0          0          0.85       0          0          0.15      
155        0          0          0          0          0          0.575      0          0          0.425     
159        0          0          0          0          0          0.7        0          0          0.3       
162        0          0          0          0          0          0.85       0          0          0.15      
180        0          0.15       0          0          0          0.7        0          0          0.15      
193        0          0          0          0          0          0.7        0          0.15       0.15      
211        0          0          0          0          0          0.7        0          0.15       0.15      
219        0          0          0          0          0          1          0          0          0         
229        0          0          0          0          0          0.85       0          0          0.15      
240        0          0          0          0          0          0.85       0          0          0.15      
247        0          0          0          0          0          0.7        0          0.075      0.225     
255        0          0          0          0          0          0.85       0          0          0.15      
257        0          0          0          0          0          0.7        0          0.075      0.225     
261        0          0          0          0          0          0.55       0          0.075      0.375     
273        0          0          0          0          0          0.7        0          0          0.3       
279        0          0          0          0          0          0.55       0          0.075      0.375     
285        0          0          0          0          0          0.7        0          0          0.3       
288        0          0          0          0          0          0.7        0          0          0.3       
291        0          0          0          0          0          0.85       0          0          0.15      
293        0          0          0          0          0          0.7        0          0.075      0.225     
307        0          0          0          0          0          0.7        0          0.075      0.225     
330        0          0          0          0          0          0.5        0          0.075      0.425     
340        0          0          0          0          0          0.7        0          0.075      0.225     
347        0          0          0          0          0          0.575      0          0          0.425     
357        0          0          0          0          0          0.85       0          0          0.15      
360        0          0          0          0          0          0.425      0          0          0.575     
377        0          0          0          0          0          0.7        0          0.075      0.225     
389        0          0          0          0          0          0.575      0          0          0.425     
392        0          0          0          0          0          0.55       0          0.075      0.375     
399        0          0          0          0          0          0.775      0          0.075      0.15      
407        0          0          0          0          0          0.425      0          0.075      0.5       
454        0          0          0          0          0          0.425      0          0.075      0.5       
521        0          0          0          0          0          0.5        0          0.075      0.425     
565        0          0          0          0          0          0.5        0          0.075      0.425     
574        0          0          0          0          0          0.7        0          0.075      0.225     
579        0          0          0          0          0          0.85       0          0          0.15      
597        0          0          0          0          0          0.65       0          0          0.35      
615        0          0          0          0.15       0          0.85       0          0          0         
668        0          0          0          0          0          0.85       0          0          0.15      
675        0          0          0          0.15       0          0.85       0          0          0         
695        0          0          0          1          0          0          0          0          0         
722        0          0          0          0.85       0          0          0          0          0.15      
740        0          0          0          1          0          0          0          0          0         
762        0          0          0          1          0          0          0          0          0         
803        0          0          0          0          0          0          0          0          0         
1781       0          0          0          0          0          0          0          0          0         
1783       0          0          0          0.15       0          0.85       0          0          0         
1795       0          0          0          0          0          0.15       0          0          0.85      
1797       0          0          0          0          0          0.85       0          0          0.15      
1799.5     0          0          0          0          0          0.15       0          0          0.85      
1800       0          0          0          0          0          1          0          0          0         
1801.5     0          0          0          0          0          0.15       0          0          0.85      
1802       0          0          0          0          0          0.85       0          0          0.15      
1803.5     0          0          0          0          0          0.15       0          0          0.85      
1804       0          0          0          0          0          0.85       0          0          0.15      
1806       0          0          0          0          0          0.15       0          0          0.85      
1807       0          0          0          0.15       0          0.85       0          0          0         
1814       0          0          0          0          0          0.15       0          0          0.85      
