~Version
 VERS              .         2.0                           : CWLS LOG ASCII STANDARD - VERSION 2.0
 WRAP              .         NO                            : ONE LINE PER DEPTH STEP
 DLM               .         SPACE                         : DELIMITING CHARACTER(SPACE TAB OR COMMA)
~Well Information
#_______________________________________________________________________________
#
#PARAMETER_NAME    .UNIT     VALUE                         : DESCRIPTION
#_______________________________________________________________________________
STRT               .m        0                             : First reference value
STOP               .m        5344                          : Last reference value
STEP               .m        0                             : Step increment
NULL               .         -9999                         : Missing value
COMP               .         OEL                           : Company
WELL               .         PLESHET 01                    : Well name
FLD                .                                       : Field
LOC                .                                       : Location
PROV               .                                       : Province
SRVC               .                                       : Service Company
DATE               .                                       : Date
UWI                .         339                           : Unique Well ID
API                .         5                             : API NUMBER
CNTY               .         ISRAEL                        : COUNTY
COUNTRY            .         ISRAEL                        : COUNTRY
Completion_date    .dd/mm/yyyy 10.07.1984                    : 
CTRY               .         Israel                        : 
EREF               .m        157.83                        : KB
GDAT               .                                       : Geodetic Datum
HZCS               .         EPSG_2039                     : 
LOC2               .                                       : LOCATION 2
LOC3               .                                       : LOCATION 3
LATI               .         110.1913888889                : LATITUDE
LONG               .         134.0763888889                : LONGITUDE
ORIGINALWELLNAME   .         PLESHET 1                     : 
SLAT               .         110.191389                    : Surface latitude
SLON               .         134.076389                    : surface longitude
SON                .                                       : SERVICE ORDER #
SPDA               .dd/mm/yyyy 22.09.1983                    : 
STAT               .                                       : STATE
WSTA               .         O-DH                          : Well_type
TVD                .         NO                            : TVD flag
TD                 .m        5344                          : 
Water_depth        .m                                      : 
X                  .m        170844                        : 
Y                  .m        600612                        : 
~Tops_Parameter
#_______________________________________________________________________________
#
#PARAMETER_NAME    .UNIT     VALUE                         : DESCRIPTION
#_______________________________________________________________________________
SET                .         DATA ROCK DISC                : 
TLFamily_MD        .         Measured Depth                : 
TLFamily_anhydrite .         Lithology (Mudlogs)           : 
TLFamily_coal      .         Lithology (Mudlogs)           : 
TLFamily_crystalline .         Lithology (Mudlogs)           : 
TLFamily_dolomite  .         Lithology (Mudlogs)           : 
TLFamily_gravel    .         Lithology (Mudlogs)           : 
TLFamily_limestone .         Lithology (Mudlogs)           : 
TLFamily_salt      .         Lithology (Mudlogs)           : 
TLFamily_sandstone .         Lithology (Mudlogs)           : 
TLFamily_shale     .         Lithology (Mudlogs)           : 
group              .         MUDLOG                        : 
~Curve Information
#_______________________________________________________________________________
#
#LOGNAME           .UNIT     LOG_ID                        : DESCRIPTION
#_______________________________________________________________________________
MD                 .m                                      :  
anhydrite          .v/v                                    : Description 
coal               .v/v                                    : Description 
crystalline        .v/v                                    : Description 
dolomite           .v/v                                    : Description 
gravel             .v/v                                    : Description 
limestone          .v/v                                    : Description 
salt               .v/v                                    : Description 
sandstone          .v/v                                    : Description 
shale              .v/v                                    : Description 
~Ascii
# ...
3528       0          0          0          0          0          0          0          1          0         
3529       0          0          0          0          0          0          0          0          1         
3531       0          0          0          0          0          0.7        0          0          0.3       
3537       0          0          0          0          0          0          0          0          1         
3538       0          0          0          0.15       0          0          0          0.55       0.3       
3541       0          0          0          0          0          0          0          0          1         
3542       0          0          0          0.15       0          0          0          0.55       0.3       
3544       0          0          0          0          0          0          0          0          1         
3545       0          0          0          0.15       0          0          0          0.7        0.15      
3546       0          0          0          0          0          0          0          0          1         
3547       0          0          0          0          0          0.7        0          0          0.3       
3549       0          0          0          0          0          0          0          0.225      0.775     
3550.5     0          0          0          0.15       0          0          0          0.85       0         
3552       0          0          0          0          0          0.7        0          0          0.3       
3559.5     0          0          0          0          0          0          0          0          1         
3560       0          0          0          0          0          0.7        0          0          0.3       
3575       0          0          0          0          0          0          0          0          1         
3575.5     0          0          0          0          0          0.7        0          0          0.3       
3577       0          0          0          0.15       0          0.85       0          0          0         
3579       0          0          0          0          0          0          0          0          1         
3580       0          0          0          0.15       0          0.7        0          0          0.15      
3585       0          0          0          0          0          0          0          0          1         
3585.5     0          0          0          0.15       0          0.7        0          0          0.15      
3587       0          0          0          0          0          0          0          0          1         
3588       0          0          0          0.15       0          0.85       0          0          0         
3596       0          0          0          0          0          0          0          0          1         
3597       0          0          0          0.15       0          0.85       0          0          0         
3600       0          0          0          0          0          0          0          0          1         
3601       0          0          0          0.15       0          0.7        0          0          0.15      
3610       0          0          0          0          0          0          0          0          1         
3611       0          0          0          0.15       0          0.7        0          0          0.15      
3613       0          0          0          0          0          0          0          0          1         
3614       0          0          0          0.15       0          0.7        0          0          0.15      
3620       0.15       0          0          0.55       0          0.3        0          0          0         
3623       0          0          0          0.15       0          0          0          0          0.85      
3624       0.15       0          0          0.55       0          0.3        0          0          0         
3633       0          0          0          0          0          0          0          0          1         
3634       0          0          0          0          0          1          0          0          0         
3635       0          0          0          0          0          0          0          0          1         
3636       0.15       0          0          0.15       0          0.7        0          0          0         
3649       0          0          0          1          0          0          0          0          0         
3652       0          0          0          0          0          0.85       0          0          0.15      
3658       0          0          0          0          0          0          0          0          1         
3658.5     0.15       0          0          0.85       0          0          0          0          0         
3661       1          0          0          0          0          0          0          0          0         
3662       0          0          0          0.15       0          0.7        0          0          0.15      
3670       0.15       0          0          0.85       0          0          0          0          0         
3672       0          0          0          0.15       0          0.55       0          0          0.3       
3685       0          0          0          1          0          0          0          0          0         
3686       0          0          0          0.15       0          0.85       0          0          0         
3693       0          0          0          1          0          0          0          0          0         
3695       0          0          0          0.15       0          0.85       0          0          0         
3698       0.15       0          0          0.85       0          0          0          0          0         
3700       0          0          0          0.15       0          0.7        0          0          0.15      
3701       0          0          0          1          0          0          0          0          0         
3702       0          0          0          0          0          1          0          0          0         
3703       0          0          0          1          0          0          0          0          0         
3705       0          0          0          0          0          1          0          0          0         
3706       0          0          0          0          0          0          0          0          1         
3708       0.15       0          0          0.85       0          0          0          0          0         
3716       0          0          0          0          0          0          0          0          1         
3717       0          0          0          1          0          0          0          0          0         
3719       0          0          0          0          0          0          0          0          1         
3720       0.15       0          0          0.85       0          0          0          0          0         
3724       0          0          0          0          0          0          0          0          1         
3725       0.15       0          0          0.85       0          0          0          0          0         
3731       0          0          0          0          0          0          0          0          1         
3733       0          0          0          1          0          0          0          0          0         
3735       0          0          0          0          0          0          0          0          1         
3735.5     0.15       0          0          0.85       0          0          0          0          0         
3738       0          0          0          0          0          0          0          0          1         
3739       0.15       0          0          0.7        0          0          0          0          0.15      
3743       0          0          0          0          0          1          0          0          0         
