~Version
 VERS              .         2.0                           : CWLS LOG ASCII STANDARD - VERSION 2.0
 WRAP              .         NO                            : ONE LINE PER DEPTH STEP
 DLM               .         SPACE                         : DELIMITING CHARACTER(SPACE TAB OR COMMA)
~Well Information
#_______________________________________________________________________________
#
#PARAMETER_NAME    .UNIT     VALUE                         : DESCRIPTION
#_______________________________________________________________________________
STRT               .m        0                             : First reference value
STOP               .m        5344                          : Last reference value
STEP               .m        0                             : Step increment
NULL               .         -9999                         : Missing value
COMP               .         OEL                           : Company
WELL               .         PLESHET 01                    : Well name
FLD                .                                       : Field
LOC                .                                       : Location
PROV               .                                       : Province
SRVC               .                                       : Service Company
DATE               .                                       : Date
UWI                .         339                           : Unique Well ID
API                .         5                             : API NUMBER
CNTY               .         ISRAEL                        : COUNTY
COUNTRY            .         ISRAEL                        : COUNTRY
Completion_date    .dd/mm/yyyy 10.07.1984                    : 
CTRY               .         Israel                        : 
EREF               .m        157.83                        : KB
GDAT               .                                       : Geodetic Datum
HZCS               .         EPSG_2039                     : 
LOC2               .                                       : LOCATION 2
LOC3               .                                       : LOCATION 3
LATI               .         110.1913888889                : LATITUDE
LONG               .         134.0763888889                : LONGITUDE
ORIGINALWELLNAME   .         PLESHET 1                     : 
SLAT               .         110.191389                    : Surface latitude
SLON               .         134.076389                    : surface longitude
SON                .                                       : SERVICE ORDER #
SPDA               .dd/mm/yyyy 22.09.1983                    : 
STAT               .                                       : STATE
WSTA               .         O-DH                          : Well_type
TVD                .         NO                            : TVD flag
TD                 .m        5344                          : 
Water_depth        .m                                      : 
X                  .m        170844                        : 
Y                  .m        600612                        : 
~Tops_Parameter
#_______________________________________________________________________________
#
#PARAMETER_NAME    .UNIT     VALUE                         : DESCRIPTION
#_______________________________________________________________________________
SET                .         DATA ROCK DISC                : 
TLFamily_MD        .         Measured Depth                : 
TLFamily_anhydrite .         Lithology (Mudlogs)           : 
TLFamily_coal      .         Lithology (Mudlogs)           : 
TLFamily_crystalline .         Lithology (Mudlogs)           : 
TLFamily_dolomite  .         Lithology (Mudlogs)           : 
TLFamily_gravel    .         Lithology (Mudlogs)           : 
TLFamily_limestone .         Lithology (Mudlogs)           : 
TLFamily_salt      .         Lithology (Mudlogs)           : 
TLFamily_sandstone .         Lithology (Mudlogs)           : 
TLFamily_shale     .         Lithology (Mudlogs)           : 
group              .         MUDLOG                        : 
~Curve Information
#_______________________________________________________________________________
#
#LOGNAME           .UNIT     LOG_ID                        : DESCRIPTION
#_______________________________________________________________________________
MD                 .m                                      :  
anhydrite          .v/v                                    : Description 
coal               .v/v                                    : Description 
crystalline        .v/v                                    : Description 
dolomite           .v/v                                    : Description 
gravel             .v/v                                    : Description 
limestone          .v/v                                    : Description 
salt               .v/v                                    : Description 
sandstone          .v/v                                    : Description 
shale              .v/v                                    : Description 
~Ascii
# ...
2101       0          0.15       0          0          0          0          0          0.075      0.775     
2104       0          0          0          0          0          0          0          1          0         
2105       0          0          0          0          0          0          0          0          1         
2109       0          0          0          0.15       0          0          0          0.55       0.3       
2112       0          0          0          0          0          0.15       0          0.075      0.775     
2116       0          0          0          0.15       0          0          0          0.55       0.3       
2121       0          0          0          0.7        0          0.15       0          0          0.15      
2124       0          0          0          0.15       0          0          0          0.7        0.15      
2125       0          0          0          0          0          0          0          0          1         
2125.5     0          0          0          0.15       0          0          0          0.55       0.3       
2127       0          0          0          0.7        0          0.15       0          0          0.15      
2129       0          0          0          0          0          0.15       0          0          0.85      
2131       0.15       0          0          0.55       0          0          0          0          0.3       
2146       0          0          0          0          0          0          0          0          1         
2147       0.15       0          0          0.85       0          0          0          0          0         
2154       0          0          0          0.15       0          0.7        0          0          0.15      
2165       0          0          0          0          0          0          0          0.075      0.925     
2168       0          0          0          0.15       0          0.7        0          0          0.15      
2170       0          0          0          0          0          0          0          0.075      0.925     
2170.5     0          0          0          0.15       0          0.7        0          0          0.15      
2171.5     0          0          0          0          0          0          0          0.075      0.925     
2177       0          0          0          0          0          0.85       0          0          0.15      
2180       0          0          0          0          0          0          0          0          1         
2180.5     0          0          0          0          0          0.7        0          0.075      0.225     
2184.5     0          0          0          0          0          0          0          0          1         
2185       0          0          0          0          0          0.7        0          0.075      0.225     
2194.5     0          0          0          0          0          0.7        0          0.075      0.225     
2204       0          0          0          0          0          0          0          0          1         
2205       0          0          0          0          0          0.55       0          0.075      0.375     
2212       0          0          0          0          0          0          0          0          1         
2213       0          0          0          0.15       0          0.55       0          0          0.3       
2217       0          0          0          0          0          0          0          0          1         
2218       0          0          0          0          0          0          0          0          1         
2219       0          0          0          0.15       0          0.7        0          0          0.15      
2224       0          0          0          0          0          0          0          0          1         
2226       0          0          0          0          0          0.7        0          0          0.3       
2235       0          0          0          0          0          0          0          0          1         
2237       0          0          0          0          0          0.85       0          0          0.15      
2260       0          0          0          0          0          0.775      0          0          0.225     
2268       0          0          0          0          0          0.775      0          0.075      0.15      
2295       0          0          0          0.15       0          0.5        0          0          0.35      
2306       0          0          0          0.15       0          0.5        0          0          0.35      
2315       0          0          0          0          0          0.575      0          0          0.425     
2319       0          0          0          0.15       0          0.5        0          0          0.35      
2326       0          0          0          0          0          0.575      0          0          0.425     
2329       0          0          0          0.15       0          0.425      0          0          0.425     
2333       0          0          0          0.15       0          0.5        0          0          0.35      
2343       0          0          0          0.15       0          0          0          0          0.85      
2345       0          0          0          0.3        0          0.35       0          0          0.35      
2347       0          0          0          0.15       0          0          0          0          0.85      
2350       0          0          0          0.3        0          0.35       0          0          0.35      
2351       0          0          0          0.15       0          0          0          0          0.85      
2358       0          0          0          0.15       0          0.55       0          0          0.3       
2359       0          0          0          0.15       0          0          0          0          0.85      
2361       0          0          0          0.15       0          0.55       0          0          0.3       
2363       0          0          0          0.3        0          0.35       0          0          0.35      
2371       0          0          0          0.15       0          0          0          0          0.85      
2374       0          0          0          0.3        0          0.35       0          0          0.35      
2375       0          0          0          0.15       0          0          0          0          0.85      
2379       0          0          0          0.3        0          0.35       0          0          0.35      
2380       0          0          0          0.15       0          0          0          0          0.85      
2382       0          0          0          0.3        0          0.35       0          0          0.35      
2383       0          0          0          0.15       0          0          0          0          0.85      
2385       0          0          0          0          0          1          0          0          0         
2387       0          0          0          0.15       0          0          0          0          0.85      
2391       0          0          0          0          0          1          0          0          0         
2391.5     0          0          0          0.15       0          0          0          0          0.85      
2407       0          0          0          0          0          0.15       0          0          0.85      
2409       0          0          0          0.15       0          0.425      0          0          0.425     
2412       0          0          0          0.15       0          0.7        0          0          0.15      
2418       0          0          0          0          0          0          0          0.15       0.85      
2420       0          0          0          0.15       0          0.55       0          0          0.3       
2424       0          0          0          0          0          0          0          0          1         
