~Version
 VERS              .         2.0                           : CWLS LOG ASCII STANDARD - VERSION 2.0
 WRAP              .         NO                            : ONE LINE PER DEPTH STEP
 DLM               .         SPACE                         : DELIMITING CHARACTER(SPACE TAB OR COMMA)
~Well Information
#_______________________________________________________________________________
#
#PARAMETER_NAME    .UNIT     VALUE                         : DESCRIPTION
#_______________________________________________________________________________
STRT               .m        0                             : First reference value
STOP               .m        5344                          : Last reference value
STEP               .m        0                             : Step increment
NULL               .         -9999                         : Missing value
COMP               .         OEL                           : Company
WELL               .         PLESHET 01                    : Well name
FLD                .                                       : Field
LOC                .                                       : Location
PROV               .                                       : Province
SRVC               .                                       : Service Company
DATE               .                                       : Date
UWI                .         339                           : Unique Well ID
API                .         5                             : API NUMBER
CNTY               .         ISRAEL                        : COUNTY
COUNTRY            .         ISRAEL                        : COUNTRY
Completion_date    .dd/mm/yyyy 10.07.1984                    : 
CTRY               .         Israel                        : 
EREF               .m        157.83                        : KB
GDAT               .                                       : Geodetic Datum
HZCS               .         EPSG_2039                     : 
LOC2               .                                       : LOCATION 2
LOC3               .                                       : LOCATION 3
LATI               .         110.1913888889                : LATITUDE
LONG               .         134.0763888889                : LONGITUDE
ORIGINALWELLNAME   .         PLESHET 1                     : 
SLAT               .         110.191389                    : Surface latitude
SLON               .         134.076389                    : surface longitude
SON                .                                       : SERVICE ORDER #
SPDA               .dd/mm/yyyy 22.09.1983                    : 
STAT               .                                       : STATE
WSTA               .         O-DH                          : Well_type
TVD                .         NO                            : TVD flag
TD                 .m        5344                          : 
Water_depth        .m                                      : 
X                  .m        170844                        : 
Y                  .m        600612                        : 
~Tops_Parameter
#_______________________________________________________________________________
#
#PARAMETER_NAME    .UNIT     VALUE                         : DESCRIPTION
#_______________________________________________________________________________
SET                .         DATA ROCK DISC                : 
TLFamily_MD        .         Measured Depth                : 
TLFamily_anhydrite .         Lithology (Mudlogs)           : 
TLFamily_coal      .         Lithology (Mudlogs)           : 
TLFamily_crystalline .         Lithology (Mudlogs)           : 
TLFamily_dolomite  .         Lithology (Mudlogs)           : 
TLFamily_gravel    .         Lithology (Mudlogs)           : 
TLFamily_limestone .         Lithology (Mudlogs)           : 
TLFamily_salt      .         Lithology (Mudlogs)           : 
TLFamily_sandstone .         Lithology (Mudlogs)           : 
TLFamily_shale     .         Lithology (Mudlogs)           : 
group              .         MUDLOG                        : 
~Curve Information
#_______________________________________________________________________________
#
#LOGNAME           .UNIT     LOG_ID                        : DESCRIPTION
#_______________________________________________________________________________
MD                 .m                                      :  
anhydrite          .v/v                                    : Description 
coal               .v/v                                    : Description 
crystalline        .v/v                                    : Description 
dolomite           .v/v                                    : Description 
gravel             .v/v                                    : Description 
limestone          .v/v                                    : Description 
salt               .v/v                                    : Description 
sandstone          .v/v                                    : Description 
shale              .v/v                                    : Description 
~Ascii
# ...
5048       0          0.15       0          0          0          0          0          0.225      0.625     
5054       0.15       0          0          0          0          0          0          0.85       0         
5055       0          0.15       0          0          0          0          0          0.225      0.625     
5056       0          0          0          0          0          1          0          0          0         
5057       0          0.15       0          0          0          0          0          0.225      0.625     
5064       0          0          0          0          0          0          0          1          0         
5065       0          0          0          0          0          0          0          0          1         
5070       0.15       0          0          0.15       0          0          0          0.7        0         
5071       0          0.15       0          0          0          0          0          0.225      0.625     
5074       0          0          0          0          0          0          0          1          0         
5074.5     0          0.15       0          0          0          0          0          0.375      0.475     
5075       0.15       0          0          0          0          0          0          0.7        0.15      
5076       0          0.15       0          0          0          0          0          0.225      0.625     
5078       0.15       0          0          0          0          0          0          0.85       0         
5079       0          0.15       0          0          0          0          0          0.225      0.625     
5080       0.15       0          0          0          0          0          0          0.85       0         
5082       0          0.15       0          0          0          0          0          0.075      0.775     
5084       0.15       0          0          0          0          0          0          0.7        0.15      
5089.5     0.15       0          0          0.7        0          0          0          0          0.15      
5091       0          0          0          0          0          0          0          0.225      0.775     
5092       0.15       0          0          0          0          0          0          0.85       0         
5093       0          0          0          0          0          0          0          0.225      0.775     
5094       0.15       0          0          0          0          0          0          0.7        0.15      
5095       0          0          0          0          0          0          0          0.225      0.775     
5100       0          0          0          0          0          0          0          1          0         
5101       0          0          0          0          0          0          0          0.225      0.775     
5103       0          0          0          0          0          0          0          0.85       0.15      
5105       0          0.15       0          0          0          0          0          0.075      0.775     
5106.5     0          0          0          0.15       0          0.55       0          0          0.3       
5107       0          0          0          0          0          0          0          0.225      0.775     
5109       0          0          0          0.15       0          0.55       0          0          0.3       
5112       0          0          0          0          0          0          0          0.075      0.925     
5113       0          0          0          0          0          0.85       0          0.15       0         
5114       0          0.15       0          0          0          0          0          0.075      0.775     
5117       0          0          0          0.15       0          0.55       0          0          0.3       
5117.5     0          0.15       0          0          0          0          0          0.225      0.625     
5124       0          0          0          0.15       0          0.55       0          0          0.3       
5125       0          0          0          0.15       0          0          0          0.85       0         
5128       0          0.15       0          0          0          0          0          0.225      0.625     
5130       0.15       0          0          0          0          0          0          0.7        0.15      
5131       0          0.15       0          0          0          0          0          0.225      0.625     
5134       0          0          0          0.15       0          0.55       0          0          0.3       
5135       0          0          0          0          0          0          0          0.225      0.775     
5140       0.15       0          0          0          0          0          0          0.85       0         
5141.5     0          0          0          0          0          0          0          0.375      0.625     
5146       0          0          0          0.15       0          0.55       0          0          0.3       
5147       0          0.15       0          0          0          0          0          0.075      0.775     
5155       0          0          0          0.55       0          0.15       0          0          0.3       
5156       0          0.15       0          0          0          0          0          0.075      0.775     
5159       0          0          0          0.15       0          0.55       0          0          0.3       
5160       0          0          0          0          0          0          0          0.375      0.625     
5165       0          0          0          0.15       0          0.55       0          0          0.3       
5167       0          0.15       0          0          0          0          0          0.075      0.775     
5167.5     0          0          0          0          0          0          0          1          0         
5168.5     0          0          0          0          0          0          0          0.225      0.775     
5170       0          0          0          0          0          0          0          0.85       0.15      
5172       0          0.15       0          0          0          0          0          0.075      0.775     
5174       0          0          0          0          0          0          0          0.85       0.15      
5175       0          0.15       0          0          0          0          0          0.225      0.625     
5180       0          0          0          0.15       0          0.55       0          0          0.3       
5181       0          0          0          0          0          0          0          0.225      0.775     
5189       0          0          0          0          0          0          0          0.85       0.15      
5190       0          0.15       0          0          0          0          0          0.225      0.625     
5194       0          0          0          0.15       0          0.55       0          0          0.3       
5195       0          0          0          0          0          0          0          0.225      0.775     
5198       0          0          0          0.15       0          0.55       0          0          0.3       
5200       0          0          0          0          0          0          0          0.225      0.775     
5202       0          0          1          0          0          0          0          0          0         
5211       0          0          0          0          0          0          0          0.85       0.15      
5214       0          0          1          0          0          0          0          0          0         
5217       0          0          0          0          0          0          0          0.7        0.3       
5219       0          0          0          0          0          0          0          0.225      0.775     
5221       0.15       0          0          0          0          0          0          0.85       0         
