~Version
 VERS              .         2.0                           : CWLS LOG ASCII STANDARD - VERSION 2.0
 WRAP              .         NO                            : ONE LINE PER DEPTH STEP
 DLM               .         SPACE                         : DELIMITING CHARACTER(SPACE TAB OR COMMA)
~Well Information
#_______________________________________________________________________________
#
#PARAMETER_NAME    .UNIT     VALUE                         : DESCRIPTION
#_______________________________________________________________________________
STRT               .m        0                             : First reference value
STOP               .m        5344                          : Last reference value
STEP               .m        0                             : Step increment
NULL               .         -9999                         : Missing value
COMP               .         OEL                           : Company
WELL               .         PLESHET 01                    : Well name
FLD                .                                       : Field
LOC                .                                       : Location
PROV               .                                       : Province
SRVC               .                                       : Service Company
DATE               .                                       : Date
UWI                .         339                           : Unique Well ID
API                .         5                             : API NUMBER
CNTY               .         ISRAEL                        : COUNTY
COUNTRY            .         ISRAEL                        : COUNTRY
Completion_date    .dd/mm/yyyy 10.07.1984                    : 
CTRY               .         Israel                        : 
EREF               .m        157.83                        : KB
GDAT               .                                       : Geodetic Datum
HZCS               .         EPSG_2039                     : 
LOC2               .                                       : LOCATION 2
LOC3               .                                       : LOCATION 3
LATI               .         110.1913888889                : LATITUDE
LONG               .         134.0763888889                : LONGITUDE
ORIGINALWELLNAME   .         PLESHET 1                     : 
SLAT               .         110.191389                    : Surface latitude
SLON               .         134.076389                    : surface longitude
SON                .                                       : SERVICE ORDER #
SPDA               .dd/mm/yyyy 22.09.1983                    : 
STAT               .                                       : STATE
WSTA               .         O-DH                          : Well_type
TVD                .         NO                            : TVD flag
TD                 .m        5344                          : 
Water_depth        .m                                      : 
X                  .m        170844                        : 
Y                  .m        600612                        : 
~Tops_Parameter
#_______________________________________________________________________________
#
#PARAMETER_NAME    .UNIT     VALUE                         : DESCRIPTION
#_______________________________________________________________________________
SET                .         DATA ROCK DISC                : 
TLFamily_MD        .         Measured Depth                : 
TLFamily_anhydrite .         Lithology (Mudlogs)           : 
TLFamily_coal      .         Lithology (Mudlogs)           : 
TLFamily_crystalline .         Lithology (Mudlogs)           : 
TLFamily_dolomite  .         Lithology (Mudlogs)           : 
TLFamily_gravel    .         Lithology (Mudlogs)           : 
TLFamily_limestone .         Lithology (Mudlogs)           : 
TLFamily_salt      .         Lithology (Mudlogs)           : 
TLFamily_sandstone .         Lithology (Mudlogs)           : 
TLFamily_shale     .         Lithology (Mudlogs)           : 
group              .         MUDLOG                        : 
~Curve Information
#_______________________________________________________________________________
#
#LOGNAME           .UNIT     LOG_ID                        : DESCRIPTION
#_______________________________________________________________________________
MD                 .m                                      :  
anhydrite          .v/v                                    : Description 
coal               .v/v                                    : Description 
crystalline        .v/v                                    : Description 
dolomite           .v/v                                    : Description 
gravel             .v/v                                    : Description 
limestone          .v/v                                    : Description 
salt               .v/v                                    : Description 
sandstone          .v/v                                    : Description 
shale              .v/v                                    : Description 
~Ascii
# ...
4272       0          0          0          0.7        0          0          0          0          0.3       
4280       0          0          0          0          0          0          0          0          1         
4281       0          0          0          0.7        0          0          0          0          0.3       
4295       0          0          0          0.7        0          0          0          0          0.3       
4300       0          0          0          0          0          0          0          0          1         
4301       0          0          0          0.7        0          0          0          0          0.3       
4302       0          0          0          0          0          0          0          0          1         
4303.5     0          0          0          0.7        0          0          0          0          0.3       
4306       0          0          0          0          0          0          0          0          1         
4307.5     0.15       0          0          0.55       0          0          0          0          0.3       
4314       0          0          0          0          0          0          0          0          1         
4315       0          0          0          0.7        0          0          0          0          0.3       
4316       0          0          0          0          0          0          0          0          1         
4317       0          0          0          0.7        0          0          0          0          0.3       
4319.5     0          0          0          0          0          0          0          0          1         
4320       0          0          0          0.7        0          0          0          0          0.3       
4321       0          0          0          0          0          0          0          0          1         
4322       0          0          0          0.7        0          0          0          0          0.3       
4324       0          0          0          0          0          0          0          0          1         
4325       0          0          0          0.7        0          0          0          0          0.3       
4327.5     0          0          0          0          0          0          0          0          1         
4328       0          0          0          0.7        0          0          0          0          0.3       
4330       0          0          0          0          0          0          0          0          1         
4332       0.15       0          0          0.55       0          0          0          0          0.3       
4337       0          0          0          0          0          0          0          0          1         
4339       0          0          0          0.7        0          0          0          0          0.3       
4340       0          0          0          0          0          0          0          0          1         
4341       0          0          0          0.7        0          0.15       0          0          0.15      
4346       0          0          0          0          0          0          0          0          1         
4348       0          0          0          0.7        0          0.15       0          0          0.15      
4349       0          0          0          0          0          0          0          0          1         
4350       0.15       0          0          0          0          0.7        0          0          0.15      
4355.5     0          0          0          0          0          0          0          0          1         
4357       0          0          0          0.55       0          0.15       0          0          0.3       
4358       0          0          0          0          0          0          0          0          1         
4361       0          0          0          0.15       0          0.7        0          0          0.15      
4365       0          0          0          0          0          0          0          0          1         
4366.5     0          0          0          0.15       0          0.85       0          0          0         
4367       0          0          0          0          0          0          0          0          1         
4370       0          0          0          0.15       0          0.55       0          0          0.3       
4371       0          0          0          0          0          0          0          0          1         
4373       0          0          0          0.15       0          0.85       0          0          0         
4373.5     0          0          0          0          0          0          0          0          1         
4375       0          0          0          0.15       0          0.7        0          0          0.15      
4376       0          0          0          0          0          0          0          0          1         
4376.5     0          0          0          0.15       0          0.85       0          0          0         
4377.5     0          0          0          0          0          0          0          0          1         
4379       0          0          0          0.15       0          0.85       0          0          0         
4380       0          0          0          0          0          0          0          0          1         
4380.5     0          0          0          0.3        0          0.55       0          0.075      0.075     
4381.5     0          0          0          0          0          0          0          0          1         
4382       0          0          0          0.45       0          0.4        0          0          0.15      
4384       0          0          0          0          0          0          0          0          1         
4385       0          0          0          0.7        0          0.15       0          0          0.15      
4386.5     0          0          0          0          0          0          0          0          1         
4387       0          0          0.15       0.85       0          0          0          0          0         
4394       0          0          0          0.55       0          0.15       0          0          0.3       
4401       0.15       0          0          0.55       0          0          0          0          0.3       
4403       0          0          0          0          0          0          0          0          1         
4404       0.15       0          0          0.55       0          0          0          0          0.3       
4412       0          0          0          0          0          0          0          0          1         
4412.5     0.15       0          0          0.55       0          0          0          0          0.3       
4415       0          0          0          0.15       0.15       0.55       0          0          0.15      
4421       0          0          0          0          0          0          0          0          1         
4422       0          0          0          0.15       0.15       0.55       0          0          0.15      
4435       0          0          0          0          0          0          0          0          1         
4435.5     0          0          0          0.15       0.15       0.55       0          0          0.15      
4450       0          0          0          0          0          0          0          0          1         
4451       0          0          0          0.15       0          0.7        0          0          0.15      
4453       0          0          0          0.15       0          0.7        0          0          0.15      
4459       0          0          0          0          0          0          0          0          1         
4460       0          0          0          0.15       0.15       0.7        0          0          0         
4472       0          0          0          1          0          0          0          0          0         
